"STATEFP","COUNTYFP","COUNTYNS","GEOID","NAME","NAMELSAD","LSAD","CLASSFP","MTFCC","CSAFP","CBSAFP","METDIVFP","FUNCSTAT","ALAND","AWATER","INTPTLAT","INTPTLON","lon","lat"
"31","039","00835841","31039","Cuming","Cuming County","06","H1","G4020",,,,"A","1477652222","10690952","+41.9158651","-096.7885168",-96.7874004069829,41.9164028259706
"53","069","01513275","53069","Wahkiakum","Wahkiakum County","06","H1","G4020",,,,"A","680962890","61582307","+46.2946377","-123.4244583",-123.433469913622,46.2911338139898
"35","011","00933054","35011","De Baca","De Baca County","06","H1","G4020",,,,"A","6016819475","29089486","+34.3592729","-104.3686961",-104.411957887647,34.3424135137613
"31","109","00835876","31109","Lancaster","Lancaster County","06","H1","G4020","339","30700",,"A","2169270569","22849484","+40.7835474","-096.6886584",-96.6877555069904,40.7841735523189
"31","129","00835886","31129","Nuckolls","Nuckolls County","06","H1","G4020",,,,"A","1489645188","1718484","+40.1764918","-098.0468422",-98.0471849896736,40.1763796295172
"72","085","01804523","72085","Las Piedras","Las Piedras Municipio","13","H1","G4020","490","41980",,"A","87748359","32509","+18.1871483","-065.8711890",-65.8693174114524,18.1875265182101
"46","099","01265772","46099","Minnehaha","Minnehaha County","06","H1","G4020",,"43620",,"A","2089691755","18198481","+43.6674723","-096.7957261",-96.7914365083788,43.6741782318038
"48","327","01383949","48327","Menard","Menard County","06","H1","G4020",,,,"A","2336237982","613559","+30.8852677","-099.8588613",-99.8206358613257,30.889782006928
"06","091","00277310","06091","Sierra","Sierra County","06","H1","G4020",,,,"A","2468694583","23299110","+39.5769252","-120.5219926",-120.51599637821,39.5804001016287
"21","053","00516873","21053","Clinton","Clinton County","06","H1","G4020",,,,"A","510875755","21152699","+36.7272577","-085.1360977",-85.1360135601808,36.727481625474
"39","063","01074044","39063","Hancock","Hancock County","06","H1","G4020","534","22300",,"A","1376125660","6020647","+41.0004711","-083.6660335",-83.6665354077431,41.0019383750188
"48","189","01383880","48189","Hale","Hale County","06","H1","G4020","352","38380",,"A","2602109427","246678","+34.0684364","-101.8228879",-101.82688130031,34.0705125102241
"01","027","00161539","01027","Clay","Clay County","06","H1","G4020",,,,"A","1564251834","5285207","+33.2703999","-085.8635254",-85.8605470840657,33.2690858672505
"48","011","01383791","48011","Armstrong","Armstrong County","06","H1","G4020","108","11100",,"A","2354581674","12219583","+34.9641790","-101.3566363",-101.357404338775,34.9649255861593
"39","003","01074015","39003","Allen","Allen County","06","H1","G4020","338","30620",,"A","1042479889","11259523","+40.7716274","-084.1061032",-84.1057794323216,40.7715207081494
"13","189","00348794","13189","McDuffie","McDuffie County","06","H1","G4020",,"12260",,"A","666848710","23114025","+33.4796231","-082.4787331",-82.4813683615479,33.4828592098825
"55","111","01581115","55111","Sauk","Sauk County","06","H1","G4020","357","12660",,"A","2153685971","45692999","+43.4280010","-089.9433184",-89.9482166666642,43.4266633846467
"05","137","00069902","05137","Stone","Stone County","06","H1","G4020",,,,"A","1570754768","7842161","+35.8570011","-092.1404819",-92.1567129535805,35.8598655552781
"41","063","01155135","41063","Wallowa","Wallowa County","06","H1","G4020",,,,"A","8147835329","14191752","+45.5937530","-117.1855796",-117.181020009081,45.5798653729376
"42","007","01214112","42007","Beaver","Beaver County","06","H1","G4020","430","38300",,"A","1125901370","24162727","+40.6841401","-080.3507209",-80.3492877813549,40.6822625858869
"28","061","00695754","28061","Jasper","Jasper County","06","H1","G4020","279","29860",,"A","1751454613","3178416","+32.0169894","-089.1194302",-89.1188598215208,32.0191127391342
"29","083","00758496","29083","Henry","Henry County","06","H1","G4020",,,,"A","1805078265","91634021","+38.3864909","-093.7926278",-93.7927500297935,38.3851630210408
"08","109","00198170","08109","Saguache","Saguache County","06","H1","G4020",,,,"A","8206547705","4454510","+38.0316514","-106.2346662",-106.281555561785,38.0805527548453
"37","037","01008544","37037","Chatham","Chatham County","06","H1","G4020","450","20500",,"A","1765648430","70626784","+35.7049939","-079.2514542",-79.2552758613801,35.7025721296184
"49","033","01448030","49033","Rich","Rich County","06","H1","G4020",,,,"A","2664700960","149106532","+41.6275976","-111.2402269",-111.24450979723,41.6322534257966
"40","001","01101788","40001","Adair","Adair County","06","H1","G4020",,,,"A","1486277939","8874158","+35.8980428","-094.6510258",-94.6587471509948,35.8839481951381
"39","085","01074055","39085","Lake","Lake County","06","H1","G4020","184","17460",,"A","593807218","1942301625","+41.9241163","-081.3926429",-81.2509392420014,41.9103521336706
"51","775","01789074","51775","Salem","Salem city","25","C7","G4020",,"40220",,"F","37602710","275156","+37.2853329","-080.0552407",-80.0554750444942,37.2864000020938
"51","121","01674630","51121","Montgomery","Montgomery County","06","H1","G4020",,"13980",,"A","1001921573","6289787","+37.1755344","-080.3877913",-80.3872154427213,37.1742907521485
"47","065","01639749","47065","Hamilton","Hamilton County","06","H1","G4020","174","16860",,"A","1404722581","86573147","+35.1634720","-085.2018432",-85.164756608474,35.1808755183366
"35","035","00929104","35035","Otero","Otero County","06","H1","G4020",,"10460",,"A","17126456785","36943378","+32.6155988","-105.7513079",-105.741442552025,32.6131446770663
"35","003","00929108","35003","Catron","Catron County","06","H1","G4020",,,,"A","17933559836","14195265","+33.9016208","-108.3919284",-108.404762398815,33.9153518868829
"01","091","00161572","01091","Marengo","Marengo County","06","H1","G4020",,,,"A","2530140237","14966620","+32.2475911","-087.7910910",-87.7895192944196,32.247613412233
"56","023","01605076","56023","Lincoln","Lincoln County","06","H1","G4020",,,,"A","10555073735","49947393","+42.2299932","-110.6829614",-110.65594727659,42.2638016191343
"29","011","00758460","29011","Barton","Barton County","06","H1","G4020",,,,"A","1533351029","12152201","+37.5007989","-094.3440893",-94.3471107746984,37.5023005832968
"48","057","01383814","48057","Calhoun","Calhoun County","06","H1","G4020","544","38920",,"A","1312707005","1361884774","+28.4417191","-096.5795739",-96.6150736733058,28.4391092685515
"51","735","01498436","51735","Poquoson","Poquoson city","25","C7","G4020","545","47260",,"F","39837595","163455830","+37.1283599","-076.3035337",-76.2705623776223,37.150269720816
"54","075","01550044","54075","Pocahontas","Pocahontas County","06","H1","G4020",,,,"A","2435206760","4094092","+38.3326060","-080.0101207",-80.0077524976044,38.3317953420118
"48","077","01383824","48077","Clay","Clay County","06","H1","G4020",,"48660",,"A","2819870186","72508536","+33.7859042","-098.2129174",-98.208503304658,33.785531038823
"51","095","01480135","51095","James City","James City County","06","H1","G4020","545","47260",,"A","368724192","95246387","+37.3248367","-076.7778878",-76.7738000898054,37.3133053000308
"31","101","00835872","31101","Keith","Keith County","06","H1","G4020",,,,"A","2749531879","124672190","+41.1942448","-101.6444493",-101.661351227254,41.1987931573992
"31","137","00835890","31137","Phelps","Phelps County","06","H1","G4020",,,,"A","1398048600","1646533","+40.5163647","-099.4065568",-99.4145428941844,40.5111130543908
"22","019","00558468","22019","Calcasieu","Calcasieu Parish","15","H1","G4020","324","29340",,"A","2756144275","78003935","+30.2295588","-093.3580154",-93.3579451616138,30.2292239003436
"22","111","00559528","22111","Union","Union Parish","15","H1","G4020","384","33740",,"A","2271261418","73624033","+32.8293486","-092.3756501",-92.3748055748922,32.8318884985506
"40","135","01101855","40135","Sequoyah","Sequoyah County","06","H1","G4020",,"22900",,"A","1744289208","105113803","+35.5024345","-094.7507569",-94.7552255050139,35.49534387161
"01","049","00161550","01049","DeKalb","DeKalb County","06","H1","G4020","497","22840",,"A","2012676480","4121543","+34.4609290","-085.8039920",-85.8041426435855,34.459772955674
"36","101","00974148","36101","Steuben","Steuben County","06","H1","G4020","236","18500",,"A","3601520291","35040141","+42.2667252","-077.3855253",-77.3838032542787,42.267809004975
"42","053","01213669","42053","Forest","Forest County","06","H1","G4020",,,,"A","1106623930","8356609","+41.5133040","-079.2497050",-79.2360118433799,41.5130724362531
"22","105","00559500","22105","Tangipahoa","Tangipahoa Parish","15","H1","G4020","406","25220",,"A","2049482871","136678798","+30.6215313","-090.4066303",-90.4056805266509,30.6266523214174
"51","179","01480173","51179","Stafford","Stafford County","06","H1","G4020","548","47900","47894","A","697237202","28088011","+38.4132608","-077.4513342",-77.4574003866442,38.4207190190789
"26","109","01622997","26109","Menominee","Menominee County","06","H1","G4020","361","31940",,"A","2704053268","761798738","+45.5362068","-087.5018115",-87.5096840020563,45.5251213570832
"18","073","00450494","18073","Jasper","Jasper County","06","H1","G4020","176","16980","23844","A","1449563753","4428654","+41.0176883","-087.1188137",-87.1161212418816,41.0229983045553
"13","025","00351605","13025","Brantley","Brantley County","06","H1","G4020",,"15260",,"A","1147949245","10297607","+31.1973339","-081.9829779",-81.9818955745034,31.1968761426442
"13","171","00326713","13171","Lamar","Lamar County","06","H1","G4020","122","12060",,"A","475264443","6044329","+33.0744405","-084.1466893",-84.1394626621816,33.0765357598836
"18","151","00450390","18151","Steuben","Steuben County","06","H1","G4020","258","11420",,"A","799729298","35454787","+41.6434670","-085.0024051",-85.0007648540175,41.6438678778849
"48","361","01383966","48361","Orange","Orange County","06","H1","G4020",,"13140",,"A","864501083","118476414","+30.1223229","-093.8940999",-93.8938981103642,30.1213082965889
"39","047","01074036","39047","Fayette","Fayette County","06","H1","G4020","198","47920",,"A","1052469899","1694038","+39.5552462","-083.4618927",-83.4560972784786,39.5598830032848
"25","015","00606934","25015","Hampshire","Hampshire County","06","H4","G4020",,"44140",,"N","1365534282","46667009","+42.3394593","-072.6636936",-72.6637844852903,42.3401529672707
"21","003","00516848","21003","Allen","Allen County","06","H1","G4020","150","14540",,"A","891838779","19482100","+36.7507703","-086.1924580",-86.1904186693297,36.7513165533719
"37","001","01008531","37001","Alamance","Alamance County","06","H1","G4020","268","15500",,"A","1096718106","27958505","+36.0439535","-079.4005733",-79.3994248175226,36.0437098765545
"20","073","00485003","20073","Greenwood","Greenwood County","06","H1","G4020",,,,"A","2961143639","24145021","+37.8793472","-096.2417321",-96.2326356698018,37.8777875637605
"25","025","00606939","25025","Suffolk","Suffolk County","06","H4","G4020","148","14460","14454","N","150863059","160514693","+42.3385513","-071.0182530",-70.9856096696628,42.3486893924795
"16","051","00399751","16051","Jefferson","Jefferson County","06","H1","G4020","292","26820",,"A","2832617272","31168374","+43.7969649","-112.3185879",-112.3113024609,43.8201324534863
"48","177","01383874","48177","Gonzales","Gonzales County","06","H1","G4020",,,,"A","2762704862","8204087","+29.4619121","-097.4919205",-97.4925237544633,29.4567333341131
"47","115","01639770","47115","Marion","Marion County","06","H1","G4020","174","16860",,"A","1290472802","36484703","+35.1334215","-085.6183990",-85.621992436372,35.1293327481676
"26","007","01622946","26007","Alpena","Alpena County","06","H1","G4020",,"10980",,"A","1481127630","2908710755","+44.8949540","-083.4265739",-83.1652010912184,45.0311075068891
"21","231","00516962","21231","Wayne","Wayne County","06","H1","G4020",,,,"A","1186690748","67283816","+36.8007715","-084.8265896",-84.8286311989712,36.8012652396939
"47","185","01639800","47185","White","White County","06","H1","G4020",,,,"A","975592111","7113369","+35.9270486","-085.4557854",-85.4551771798027,35.9263484289827
"48","147","01383859","48147","Fannin","Fannin County","06","H1","G4020","206","14300",,"A","2307251018","20847065","+33.5911611","-096.1049882",-96.1068276828239,33.5938097957906
"20","043","00484991","20043","Doniphan","Doniphan County","06","H1","G4020","312","41140",,"A","1019105691","12424174","+39.7885021","-095.1472253",-95.1467942431346,39.7880806128698
"48","265","01383918","48265","Kerr","Kerr County","06","H1","G4020","314","28500",,"A","2857603410","10245935","+30.0599530","-099.3533388",-99.3501597562281,30.061483805216
"12","053","00295751","12053","Hernando","Hernando County","06","H1","G4020",,"45300",,"A","1224962206","300591492","+28.5730426","-082.4662272",-82.4684895116374,28.5561708512564
"12","129","00306912","12129","Wakulla","Wakulla County","06","H1","G4020",,"45220",,"A","1570615733","334902363","+30.1394320","-084.3748463",-84.3756074885222,30.147771978859
"12","131","00295727","12131","Walton","Walton County","06","H1","G4020",,"18880",,"A","2687740188","522795160","+30.6312106","-086.1766139",-86.1715163089418,30.6184688458429
"28","017","00695733","28017","Chickasaw","Chickasaw County","06","H1","G4020",,,,"A","1299608407","6380767","+33.9332767","-088.9475579",-88.947863789121,33.9207998597568
"02","130","01419973","02130","Ketchikan Gateway","Ketchikan Gateway Borough","04","H1","G4020",,"28540",,"A","12579378509","4651615675","+55.4499378","-131.1066847",-131.030510342727,55.4885148594694
"26","035","01622960","26035","Clare","Clare County","06","H1","G4020",,,,"A","1461700232","28500461","+43.9911368","-084.8383253",-84.8478607547819,43.9878918654701
"20","157","00485042","20157","Republic","Republic County","06","H1","G4020",,,,"A","1857998461","7951912","+39.8289061","-097.6508830",-97.6506227727647,39.8277963216196
"12","127","00306921","12127","Volusia","Volusia County","06","H1","G4020","422","19660",,"A","2852204344","857791723","+29.0577690","-081.1617920",-81.1485743572955,29.0634475051089
"40","017","01101796","40017","Canadian","Canadian County","06","H1","G4020","416","36420",,"A","2322131002","23131671","+35.5433544","-097.9798891",-97.9824010418674,35.5424444709205
"72","115","01804538","72115","Quebradillas","Quebradillas Municipio","13","H1","G4020","490","11640",,"A","58747683","30224116","+18.4663570","-066.9276025",-66.9262663704104,18.463048272059
"78","030","02378250","78030","St. Thomas","St. Thomas Island","10","H4","G4020",,,,"N","81108425","717921377","+18.3267480","-064.9712508",-64.967082785687,18.3286016876237
"13","115","00353665","13115","Floyd","Floyd County","06","H1","G4020","122","40660",,"A","1320434485","22384089","+34.2636918","-085.2136851",-85.2142786499101,34.2631626889522
"32","001","00858638","32001","Churchill","Churchill County","06","H1","G4020",,"21980",,"A","12821785223","190748448","+39.5377097","-118.2641661",-118.33577887423,39.5808763809931
"31","181","00835912","31181","Webster","Webster County","06","H1","G4020",,,,"A","1489017962","337241","+40.1806461","-098.4985897",-98.4999473752792,40.1764332140643
"17","067","00424235","17067","Hancock","Hancock County","06","H1","G4020","161","22800",,"A","2055798692","53563370","+40.4013180","-091.1688008",-91.1646955495567,40.4037747348092
"46","067","01265771","46067","Hutchinson","Hutchinson County","06","H1","G4020",,,,"A","2105694681","3644221","+43.3367101","-097.7493828",-97.7544162351556,43.3348466890838
"41","013","01155128","41013","Crook","Crook County","06","H1","G4020","140","39260",,"A","7715390842","21004473","+44.1630537","-120.3715849",-120.35658095017,44.1421798371871
"50","011","01461762","50011","Franklin","Franklin County","06","H1","G4020","162","15540",,"A","1642369811","150194261","+44.8589643","-072.9094023",-72.912026542937,44.8575139984048
"26","103","01622994","26103","Marquette","Marquette County","06","H1","G4020",,"32100",,"A","4685406068","4185352679","+46.6565964","-087.5840278",-87.5735241034059,46.6628779661105
"09","007","00212797","09007","Middlesex","Middlesex County","06","H4","G4020","278","25540",,"N","956493754","180679140","+41.4330028","-072.5227802",-72.5231194295891,41.4353818043173
"37","057","01008548","37057","Davidson","Davidson County","06","H1","G4020","268","49180",,"A","1432727271","37436736","+35.7951312","-080.2071070",-80.2127487755609,35.7933524916777
"17","025","00424214","17025","Clay","Clay County","06","H1","G4020",,,,"A","1212815740","3271820","+38.7468187","-088.4823254",-88.4902374224868,38.7541714951253
"29","103","00758506","29103","Knox","Knox County","06","H1","G4020",,,,"A","1305376627","7307094","+40.1368559","-092.1468345",-92.1480723868072,40.128254892878
"29","117","00758513","29117","Livingston","Livingston County","06","H1","G4020",,,,"A","1378657551","16187907","+39.7785870","-093.5482013",-93.5482792786201,39.7821029110547
"42","117","01209189","42117","Tioga","Tioga County","06","H1","G4020",,,,"A","2936458661","8267710","+41.7668593","-077.2572881",-77.2542641766135,41.7721614458372
"31","043","00835843","31043","Dakota","Dakota County","06","H1","G4020",,"43580",,"A","684463003","8152947","+42.3916449","-096.5613555",-96.5645130179964,42.39111181857
"26","089","01622987","26089","Leelanau","Leelanau County","06","H1","G4020",,"45900",,"A","899241895","5659105307","+45.1461816","-086.0515740",-86.0384960523435,45.1517708589875
"51","181","01480174","51181","Surry","Surry County","06","H1","G4020",,,,"A","722475750","81216905","+37.1197611","-076.8801717",-76.8883095700188,37.1169121603485
"48","391","01383981","48391","Refugio","Refugio County","06","H1","G4020",,,,"A","1995545556","123688759","+28.3221157","-097.1624723",-97.1595214632186,28.321575300082
"39","017","01074021","39017","Butler","Butler County","06","H1","G4020","178","17140",,"A","1208303733","9058528","+39.4397469","-084.5657341",-84.5756449351,39.4386164734116
"13","273","00352238","13273","Terrell","Terrell County","06","H1","G4020",,"10500",,"A","869559691","5087422","+31.7771909","-084.4394464",-84.4369222013255,31.7768809863606
"13","063","01672399","13063","Clayton","Clayton County","06","H1","G4020","122","12060",,"A","366946710","6972579","+33.5426863","-084.3555727",-84.3576542516935,33.5419006063479
"56","013","01605072","56013","Fremont","Fremont County","06","H1","G4020",,"40180",,"A","23785388828","212768588","+43.0548310","-108.6089349",-108.630418123664,43.04052809731
"18","115","00450378","18115","Ohio","Ohio County","06","H1","G4020","178","17140",,"A","223126823","3352210","+38.9405270","-084.9642994",-84.9650431208644,38.9500945902012
"13","073","00348865","13073","Columbia","Columbia County","06","H1","G4020",,"12260",,"A","751293211","45394065","+33.5476313","-082.2522957",-82.2640527022527,33.5441179100769
"08","115","00198173","08115","Sedgwick","Sedgwick County","06","H1","G4020",,,,"A","1419419016","3530746","+40.8715679","-102.3553579",-102.351791194745,40.8759049641302
"30","065","01719593","30065","Musselshell","Musselshell County","06","H1","G4020",,,,"A","4840577745","7118682","+46.5052807","-108.4397631",-108.398088130072,46.4965611851026
"42","043","01213667","42043","Dauphin","Dauphin County","06","H1","G4020","276","25420",,"A","1359456340","86211444","+40.4125646","-076.7926343",-76.7794746983138,40.4154405354397
"46","101","01265775","46101","Moody","Moody County","06","H1","G4020",,,,"A","1345196858","3679400","+44.0124293","-096.6760536",-96.6709220274804,44.022011363045
"54","079","01550046","54079","Putnam","Putnam County","06","H1","G4020","170","26580",,"A","895302723","12226547","+38.5105128","-081.9061090",-81.9089929263027,38.5086167768973
"34","037","00882236","34037","Sussex","Sussex County","06","H1","G4020","408","35620","35084","A","1343564828","43222888","+41.1374609","-074.6919141",-74.6908006832332,41.1392969334788
"20","039","00484989","20039","Decatur","Decatur County","06","H1","G4020",,,,"A","2314199329","1631670","+39.7835420","-100.4597084",-100.459899544344,39.7847564916871
"18","123","00451682","18123","Perry","Perry County","06","H1","G4020",,,,"A","988702362","11783935","+38.0814361","-086.6265397",-86.6380317986216,38.07964913518
"28","145","00695793","28145","Union","Union County","06","H1","G4020",,,,"A","1076417872","3369003","+34.4895325","-089.0023393",-89.0038569100147,34.4904742327194
"31","015","00835829","31015","Boyd","Boyd County","06","H1","G4020",,,,"A","1398424239","11893557","+42.8944477","-098.7730221",-98.7664619491018,42.8996847625264
"27","095","00659493","27095","Mille Lacs","Mille Lacs County","06","H1","G4020","378","33460",,"A","1482415009","282932659","+45.9290434","-093.6329964",-93.6300834590445,45.9380407245639
"38","099","01034214","38099","Walsh","Walsh County","06","H1","G4020",,,,"A","3319346396","32181391","+48.3769789","-097.7222304",-97.7213240866859,48.3694560358411
"39","115","01074070","39115","Morgan","Morgan County","06","H1","G4020",,,,"A","1078538278","13868572","+39.6249458","-081.8616967",-81.852661898424,39.6203734727006
"39","133","01074079","39133","Portage","Portage County","06","H1","G4020","184","10420",,"A","1262370046","43127727","+41.1689703","-081.1969618",-81.1974037385823,41.1676828401285
"56","041","01605084","56041","Uinta","Uinta County","06","H1","G4020",,"21740",,"A","5391631765","16625817","+41.2847255","-110.5589468",-110.547561693381,41.2874919209699
"32","013","00863310","32013","Humboldt","Humboldt County","06","H1","G4020",,"49080",,"A","24969533319","44196978","+41.4079136","-118.1275915",-118.111965827776,41.4068465707025
"48","247","01383909","48247","Jim Hogg","Jim Hogg County","06","H1","G4020",,,,"A","2942674728","92565","+27.0532308","-098.7475708",-98.6973050684636,27.0433971367902
"08","017","00198124","08017","Cheyenne","Cheyenne County","06","H1","G4020",,,,"A","4605713960","8166129","+38.8356456","-102.6017914",-102.603395823903,38.8279397206567
"41","005","01155127","41005","Clackamas","Clackamas County","06","H1","G4020","440","38900",,"A","4845035564","31872078","+45.1604934","-122.1951274",-122.220869625254,45.1880453546579
"05","113","00069175","05113","Polk","Polk County","06","H1","G4020",,,,"A","2220863254","12372575","+34.4909149","-094.2308841",-94.2280604373359,34.4858849277395
"13","193","00346957","13193","Macon","Macon County","06","H1","G4020",,,,"A","1037709939","13841916","+32.3626859","-084.0512306",-84.0424794130936,32.3583825945391
"18","007","00450403","18007","Benton","Benton County","06","H1","G4020","320","29200",,"A","1052616465","236033","+40.6009394","-087.3147862",-87.3109060180136,40.6062584629787
"47","129","01639778","47129","Morgan","Morgan County","06","H1","G4020","315","28940",,"A","1352439675","823018","+36.1386970","-084.6392616",-84.6492037421236,36.1350244126551
"46","043","01266978","46043","Douglas","Douglas County","06","H1","G4020",,,,"A","1118358762","4832944","+43.3915064","-098.3584331",-98.3660983596805,43.3869241640221
"24","047","01668802","24047","Worcester","Worcester County","06","H1","G4020","480","41540",,"A","1213155089","586532498","+38.2221332","-075.3099315",-75.2966708246632,38.2164999843063
"17","185","00424293","17185","Wabash","Wabash County","06","H1","G4020",,,,"A","578403998","10973558","+38.4458209","-087.8391674",-87.8442748908455,38.446101602336
"18","069","00450361","18069","Huntington","Huntington County","06","H1","G4020","258","26540",,"A","991056705","13133694","+40.8263938","-085.4785975",-85.4881722777163,40.8292399574626
"21","209","00516951","21209","Scott","Scott County","06","H1","G4020","336","30460",,"A","729774435","9440820","+38.2857099","-084.5783405",-84.5839338937236,38.2915473159896
"19","053","00465215","19053","Decatur","Decatur County","06","H1","G4020",,,,"A","1377567269","4140764","+40.7363787","-093.7845799",-93.7862814096303,40.7376827110394
"18","169","00450399","18169","Wabash","Wabash County","06","H1","G4020",,"47340",,"A","1068468089","21854115","+40.8437475","-085.7951915",-85.7940056738606,40.845693005788
"18","003","00450402","18003","Allen","Allen County","06","H1","G4020","258","23060",,"A","1702451597","7002354","+41.0919086","-085.0717907",-85.0665620401718,41.0908708810728
"18","099","00450372","18099","Marshall","Marshall County","06","H1","G4020","515","38500",,"A","1148969980","15858580","+41.3250032","-086.2690363",-86.2617612923415,41.3248489607536
"31","171","00835907","31171","Thomas","Thomas County","06","H1","G4020",,,,"A","1846403702","2028433","+41.8557296","-100.5247028",-100.555845619443,41.9135060743583
"38","085","01034208","38085","Sioux","Sioux County","06","H1","G4020",,,,"A","2833580511","88449896","+46.1106181","-101.0612840",-101.040305284049,46.1126539091004
"48","127","01383849","48127","Dimmit","Dimmit County","06","H1","G4020",,,,"A","3441795367","14576535","+28.4235871","-099.7658713",-99.7567261250045,28.4225359982205
"27","045","00659468","27045","Fillmore","Fillmore County","06","H1","G4020","462","40340",,"A","2230746821","2055506","+43.6791869","-092.0939369",-92.0901672654192,43.6739971692711
"45","023","01247988","45023","Chester","Chester County","06","H1","G4020","172","16740",,"A","1503905793","14249301","+34.6893424","-081.1612488",-81.1595312709209,34.6920572920766
"27","073","00659482","27073","Lac qui Parle","Lac qui Parle County","06","H1","G4020",,,,"A","1981394517","33643134","+44.9998559","-096.1768360",-96.1734786585276,44.9954869289898
"49","005","01448017","49005","Cache","Cache County","06","H1","G4020",,"30860",,"A","3016638914","21097697","+41.7341174","-111.7453987",-111.743622083421,41.7224295705868
"55","093","01581107","55093","Pierce","Pierce County","06","H1","G4020","378","33460",,"A","1486700515","48452318","+44.7253365","-092.4262793",-92.4225034912524,44.7194015030779
"13","049","00357747","13049","Charlton","Charlton County","06","H1","G4020",,,,"A","2020415647","5963237","+30.7799036","-082.1396442",-82.1376881411665,30.7817272015735
"13","233","00343585","13233","Polk","Polk County","06","H1","G4020","122","16340",,"A","803758612","4681735","+33.9960153","-085.1883384",-85.188153382188,34.0017844854497
"17","113","01784833","17113","McLean","McLean County","06","H1","G4020","145","14010",,"A","3064600918","7801224","+40.4945594","-088.8445391",-88.8473242780277,40.4908916186805
"23","001","00581286","23001","Androscoggin","Androscoggin County","06","H1","G4020","438","30340",,"A","1211990512","75546586","+44.1676811","-070.2074347",-70.2064449969869,44.165848429846
"16","055","00395661","16055","Kootenai","Kootenai County","06","H1","G4020","518","17660",,"A","3205833848","184447574","+47.6759658","-116.6959222",-116.701762030981,47.6743566297057
"32","003","00863600","32003","Clark","Clark County","06","H1","G4020","332","29820",,"A","20439276974","438416032","+36.2142575","-115.0138120",-115.013561058034,36.2151963074712
"20","147","00485037","20147","Phillips","Phillips County","06","H1","G4020",,,,"A","2294395646","22493383","+39.7845058","-099.3421498",-99.3470221229772,39.7845831124869
"31","089","00835866","31089","Holt","Holt County","06","H1","G4020",,,,"A","6248078943","13204318","+42.4592867","-098.7847662",-98.7838447084184,42.4557108472972
"29","101","00758505","29101","Johnson","Johnson County","06","H1","G4020","312","47660",,"A","2147773696","10182862","+38.7415280","-093.8118634",-93.8063674936126,38.7440854856643
"55","063","01581091","55063","La Crosse","La Crosse County","06","H1","G4020",,"29100",,"A","1170076618","73110198","+43.9082222","-091.1117584",-91.1151957557457,43.9065519065219
"22","021","00558477","22021","Caldwell","Caldwell Parish","15","H1","G4020",,,,"A","1371371987","29109145","+32.1012195","-092.1142311",-92.1166058761354,32.092271548618
"21","061","00516877","21061","Edmonson","Edmonson County","06","H1","G4020","150","14540",,"A","784468358","13258105","+37.2275136","-086.2180153",-86.2386201494617,37.2088402055314
"17","005","00424204","17005","Bond","Bond County","06","H1","G4020","476","41180",,"A","985073265","6462629","+38.8859240","-089.4365916",-89.435544238084,38.8868296401445
"17","009","00424206","17009","Brown","Brown County","06","H1","G4020",,,,"A","791828628","4144346","+39.9620694","-090.7503095",-90.7503556211609,39.9617616287566
"27","085","00659491","27085","McLeod","McLeod County","06","H1","G4020","378","26780",,"A","1272943172","36367409","+44.8216571","-094.2723231",-94.2724202105859,44.8235439383292
"55","033","01581076","55033","Dunn","Dunn County","06","H1","G4020","232","32860",,"A","2201905281","35570217","+44.9477513","-091.8976451",-91.8964036079652,44.9465839938663
"08","027","00198129","08027","Custer","Custer County","06","H1","G4020",,,,"A","1913031921","3364150","+38.1019955","-105.3735123",-105.367471778341,38.1086779014791
"29","123","00758515","29123","Madison","Madison County","06","H1","G4020",,,,"A","1280458107","8318260","+37.4744807","-090.3434128",-90.3450261595696,37.4780954960556
"48","353","01383962","48353","Nolan","Nolan County","06","H1","G4020",,"45020",,"A","2362061742","5052159","+32.3123379","-100.4181078",-100.406052463246,32.3034902579301
"42","127","01213692","42127","Wayne","Wayne County","06","H1","G4020",,,,"A","1879296554","64785158","+41.6466021","-075.2924932",-75.3032577123563,41.648730749385
"36","091","00974143","36091","Saratoga","Saratoga County","06","H1","G4020","104","10580",,"A","2097879145","87573063","+43.1061353","-073.8553872",-73.8639045540592,43.1073811968351
"48","041","01383806","48041","Brazos","Brazos County","06","H1","G4020",,"17780",,"A","1518090963","13210254","+30.6567132","-096.3023935",-96.3023849450539,30.6607989734151
"40","095","01101832","40095","Marshall","Marshall County","06","H1","G4020",,,,"A","962443215","143430766","+34.0270068","-096.7705330",-96.7691343971156,34.0245101816602
"24","001","01713506","24001","Allegany","Allegany County","06","H1","G4020",,"19060",,"A","1093462025","14801442","+39.6123134","-078.7031037",-78.6975385505766,39.6214732187397
"54","103","01717836","54103","Wetzel","Wetzel County","06","H1","G4020",,,,"A","927389120","8449879","+39.5981800","-080.6353994",-80.6390976036208,39.6052632661244
"55","053","01581086","55053","Jackson","Jackson County","06","H1","G4020",,,,"A","2558687761","32538303","+44.3245897","-090.7995104",-90.8051677337527,44.3191504403538
"41","007","01135846","41007","Clatsop","Clatsop County","06","H1","G4020",,"11820",,"A","2144872198","661629272","+46.0245094","-123.7050366",-123.716999160949,46.0175261511769
"53","041","01531927","53041","Lewis","Lewis County","06","H1","G4020","500","16500",,"A","6223179711","86925423","+46.5800714","-122.3774443",-122.392638347534,46.5777681750906
"36","003","00974100","36003","Allegany","Allegany County","06","H1","G4020",,,,"A","2666029673","12999275","+42.2478532","-078.0261531",-78.0275606009918,42.2573913510526
"19","031","00465205","19031","Cedar","Cedar County","06","H1","G4020",,,,"A","1500798712","6385832","+41.7723600","-091.1326105",-91.1324230468346,41.7723266607048
"18","117","00451681","18117","Orange","Orange County","06","H1","G4020",,,,"A","1031794491","25417740","+38.5473812","-086.4892570",-86.4950692821225,38.5417788856705
"13","089","01687424","13089","DeKalb","DeKalb County","06","H1","G4020","122","12060",,"A","693420786","8881087","+33.7706611","-084.2263432",-84.2264324159721,33.7715468712599
"13","227","01673011","13227","Pickens","Pickens County","06","H1","G4020","122","12060",,"A","601031022","1690669","+34.4567464","-084.4903508",-84.4656390577549,34.4643197803205
"30","015","01719619","30015","Chouteau","Chouteau County","06","H1","G4020",,,,"A","10288824735","62565533","+47.8868343","-110.4362004",-110.435223802883,47.8805838786384
"31","017","00835830","31017","Brown","Brown County","06","H1","G4020",,,,"A","3163296263","9814399","+42.3595618","-099.9239198",-99.9295064517671,42.4300205961423
"47","013","01639728","47013","Campbell","Campbell County","06","H1","G4020","315","28940",,"A","1243685300","46425148","+36.4015922","-084.1592495",-84.1493845804299,36.4035128143226
"37","069","01008553","37069","Franklin","Franklin County","06","H1","G4020","450","39580",,"A","1273757138","7178583","+36.0882406","-078.2830903",-78.2856965824224,36.0827733527059
"24","510","01702381","24510","Baltimore","Baltimore city","25","C7","G4020","548","12580",,"F","209650970","28758714","+39.3000324","-076.6104761",-76.6106469050011,39.3009797142715
"20","111","00485020","20111","Lyon","Lyon County","06","H1","G4020",,"21380",,"A","2194978406","20541643","+38.4554034","-096.1616407",-96.1526397501543,38.4561871377106
"19","027","00465203","19027","Carroll","Carroll County","06","H1","G4020",,"16140",,"A","1474835095","2145349","+42.0394920","-094.8676471",-94.8605592806764,42.0362382228832
"22","107","00559509","22107","Tensas","Tensas Parish","15","H1","G4020",,,,"A","1561204507","99471077","+32.0014894","-091.3425760",-91.340072996453,32.0016607750645
"47","123","01639776","47123","Monroe","Monroe County","06","H1","G4020",,,,"A","1646657184","43535001","+35.4478181","-084.2497050",-84.2528004803678,35.442644888871
"20","075","00485327","20075","Hamilton","Hamilton County","06","H1","G4020",,,,"A","2580958328","2893322","+37.9952438","-101.7936887",-101.791256464737,37.9991525438402
"19","151","00465264","19151","Pocahontas","Pocahontas County","06","H1","G4020",,,,"A","1495047191","3666530","+42.7340333","-094.6782789",-94.6787466122153,42.7341351104705
"16","045","00395442","16045","Gem","Gem County","06","H1","G4020","147","14260",,"A","1449796187","12491929","+44.0614727","-116.3987839",-116.397518963667,44.0615465409642
"05","063","00069163","05063","Independence","Independence County","06","H1","G4020",,"12900",,"A","1978814985","19593589","+35.7374992","-091.5599423",-91.5697116528964,35.7415534129098
"05","085","00069164","05085","Lonoke","Lonoke County","06","H1","G4020","340","30780",,"A","1997848802","82750645","+34.7551137","-091.8941320",-91.8887898981207,34.7542368127707
"18","111","00450376","18111","Newton","Newton County","06","H1","G4020","176","16980","23844","A","1040539828","4349506","+40.9623985","-087.4021716",-87.3975365942558,40.9558477435746
"13","119","00349324","13119","Franklin","Franklin County","06","H1","G4020",,,,"A","677441264","12732865","+34.3752657","-083.2275325",-83.2291886373942,34.3754273152281
"12","051","00307626","12051","Hendry","Hendry County","06","H1","G4020","163","17500",,"A","2994619266","87037213","+26.5399670","-081.1521142",-81.1659012495648,26.5534898512854
"13","265","00347654","13265","Taliaferro","Taliaferro County","06","H1","G4020",,,,"A","504031037","1915743","+33.5593190","-082.8752721",-82.878764468671,33.5660908407664
"48","245","01383908","48245","Jefferson","Jefferson County","06","H1","G4020",,"13140",,"A","2269793077","611960827","+29.8539997","-094.1493306",-94.1534394591336,29.8537289242133
"30","059","01719600","30059","Meagher","Meagher County","06","H1","G4020",,,,"A","6194909925","7475979","+46.5856996","-110.9217396",-110.885661384977,46.5982240781507
"08","067","00198148","08067","La Plata","La Plata County","06","H1","G4020",,"20420",,"A","4376255148","25642578","+37.2873673","-107.8397178",-107.843270686596,37.2865819539983
"48","027","01383799","48027","Bell","Bell County","06","H1","G4020",,"28660",,"A","2723084632","94398906","+31.0427479","-097.4812697",-97.4782023976578,31.0376717130717
"28","069","00695758","28069","Kemper","Kemper County","06","H1","G4020",,"32940",,"A","1984403152","2182350","+32.7501361","-088.6256306",-88.6411594239025,32.7545579306829
"05","019","00066845","05019","Clark","Clark County","06","H1","G4020",,"11660",,"A","2243130283","43387661","+34.0533162","-093.1762085",-93.1763674899212,34.0509558643005
"41","035","01155134","41035","Klamath","Klamath County","06","H1","G4020",,"28900",,"A","15391639810","503686589","+42.6837613","-121.6461682",-121.6501209938,42.6864089427358
"36","075","00974136","36075","Oswego","Oswego County","06","H1","G4020","532","45060",,"A","2464751381","933476015","+43.4614431","-076.2092618",-76.2086867847121,43.4638832499411
"72","105","01804533","72105","Naranjito","Naranjito Municipio","13","H1","G4020","490","41980",,"A","70969182","898340","+18.2899204","-066.2534399",-66.2525509031117,18.2884177601591
"01","019","00161535","01019","Cherokee","Cherokee County","06","H1","G4020",,,,"A","1433623319","120308342","+34.0695153","-085.6542417",-85.6037937155572,34.1759559677231
"48","019","01383795","48019","Bandera","Bandera County","06","H1","G4020","484","41700",,"A","2048666866","17288358","+29.7563890","-099.2482849",-99.246244111968,29.7472049939324
"30","087","01716795","30087","Rosebud","Rosebud County","06","H1","G4020",,,,"A","12971010158","44234236","+46.1732331","-106.6667462",-106.730712235612,46.2296522667681
"35","059","00929115","35059","Union","Union County","06","H1","G4020",,,,"A","9906866302","15466855","+36.4880853","-103.4757229",-103.470970513361,36.4816684794851
"26","153","01623017","26153","Schoolcraft","Schoolcraft County","06","H1","G4020",,,,"A","3035145674","1844210517","+46.0211217","-086.1970290",-86.1772944903959,46.0424798151426
"36","111","00974153","36111","Ulster","Ulster County","06","H1","G4020","408","28740",,"A","2911757960","94596776","+41.9472124","-074.2654582",-74.258569525087,41.8881456262987
"34","007","00882273","34007","Camden","Camden County","06","H1","G4020","428","37980","15804","A","573293905","15720557","+39.8024071","-074.9612493",-74.9597543552898,39.8035392390978
"17","083","00424243","17083","Jersey","Jersey County","06","H1","G4020","476","41180",,"A","957415147","20333975","+39.0801945","-090.3613850",-90.3565282984681,39.0855054887498
"51","085","01480132","51085","Hanover","Hanover County","06","H1","G4020",,"40060",,"A","1211818311","12652671","+37.7602149","-077.4913168",-77.4911573271144,37.7601394811206
"20","199","00485060","20199","Wallace","Wallace County","06","H1","G4020",,,,"A","2366348284","140936","+38.9266259","-101.7711031",-101.763574005288,38.9166611397603
"26","003","01622944","26003","Alger","Alger County","06","H1","G4020",,,,"A","2369925449","10703519680","+47.0800765","-086.5641076",-86.572160171658,46.9482692107738
"05","049","00066854","05049","Fulton","Fulton County","06","H1","G4020",,,,"A","1601099815","5526928","+36.3836192","-091.8196636",-91.8182352993605,36.3816695473838
"48","215","01383893","48215","Hidalgo","Hidalgo County","06","H1","G4020","365","32580",,"A","4068395785","31102629","+26.3963839","-098.1809900",-98.1810871978621,26.3967284863604
"37","155","01026130","37155","Robeson","Robeson County","06","H1","G4020","246","31300",,"A","2453435687","5076395","+34.6392096","-079.1008811",-79.1038649276877,34.6402420513591
"26","123","01623004","26123","Newaygo","Newaygo County","06","H1","G4020",,,,"A","2172706351","59083038","+43.5627117","-085.7913723",-85.8009172937207,43.5541675519111
"41","049","01135860","41049","Morrow","Morrow County","06","H1","G4020",,"25840",,"A","5259046542","44372276","+45.4254956","-119.6023111",-119.58427503116,45.4190045389146
"27","153","00659521","27153","Todd","Todd County","06","H1","G4020",,,,"A","2447760759","89134294","+46.0665694","-094.9005758",-94.8975993632467,46.0706237640573
"05","083","00082850","05083","Logan","Logan County","06","H1","G4020",,,,"A","1834415737","61409940","+35.2186538","-093.7209102",-93.7162169926259,35.2153385104402
"37","109","01008569","37109","Lincoln","Lincoln County","06","H1","G4020","172","16740",,"A","766230937","23359099","+35.4884913","-081.2268916",-81.2235326264021,35.4855950234194
"05","091","00069166","05091","Miller","Miller County","06","H1","G4020",,"45500",,"A","1620637610","30875065","+33.3055054","-093.9015018",-93.8915614277308,33.3121471783389
"12","095","00295750","12095","Orange","Orange County","06","H1","G4020","422","36740",,"A","2335820971","262462219","+28.5143906","-081.3232839",-81.3234735280736,28.5144162587658
"08","111","00198171","08111","San Juan","San Juan County","06","H1","G4020",,,,"A","1003660672","2035929","+37.7810492","-107.6702567",-107.67614727491,37.7640430729636
"16","041","00395585","16041","Franklin","Franklin County","06","H1","G4020",,"30860",,"A","1717211132","12153472","+42.1736093","-111.8229653",-111.813201111269,42.181091653728
"13","045","00326650","13045","Carroll","Carroll County","06","H1","G4020","122","12060",,"A","1292475864","12301430","+33.5822366","-085.0805272",-85.0797630544994,33.582797851541
"20","161","00485044","20161","Riley","Riley County","06","H1","G4020",,"31740",,"A","1579116617","32002514","+39.2912114","-096.7274889",-96.7351769755133,39.296553201148
"48","413","01383992","48413","Schleicher","Schleicher County","06","H1","G4020",,,,"A","3394546067","87401","+30.8962331","-100.5272161",-100.538546044499,30.8974526087586
"51","167","01497573","51167","Russell","Russell County","06","H1","G4020",,,,"A","1226420311","7550968","+36.9334198","-082.0959342",-82.0953569203774,36.9338705280809
"37","027","01008541","37027","Caldwell","Caldwell County","06","H1","G4020",,"25860",,"A","1222192494","7038403","+35.9663950","-081.5125411",-81.546436645149,35.9530379334041
"16","065","00394803","16065","Madison","Madison County","06","H1","G4020","292","39940",,"A","1215396310","10500895","+43.7886140","-111.6569925",-111.659188485175,43.7841402516355
"18","173","00450335","18173","Warrick","Warrick County","06","H1","G4020",,"21780",,"A","996664711","16155579","+38.0977282","-087.2720486",-87.2720537446661,38.0921662434173
"21","001","00516847","21001","Adair","Adair County","06","H1","G4020",,,,"A","1049691067","18403520","+37.1055589","-085.2813796",-85.2806497628967,37.1041534525931
"21","077","00516885","21077","Gallatin","Gallatin County","06","H1","G4020","178","17140",,"A","254700873","16517494","+38.7601027","-084.8621525",-84.8593123856786,38.7568746647107
"21","097","00516895","21097","Harrison","Harrison County","06","H1","G4020",,,,"A","793603854","8981533","+38.4445776","-084.3341313",-84.3313958343414,38.4418035090874
"23","023","00581297","23023","Sagadahoc","Sagadahoc County","06","H1","G4020","438","38860",,"A","657782149","300590925","+43.9168446","-069.8442270",-69.8393089562285,43.9117268937857
"30","097","01719569","30097","Sweet Grass","Sweet Grass County","06","H1","G4020",,,,"A","4805735230","17537143","+45.8112917","-109.9447960",-109.94101389889,45.8138937581026
"48","181","01383876","48181","Grayson","Grayson County","06","H1","G4020","206","43300",,"A","2416026291","120082118","+33.6245240","-096.6756930",-96.6777253880892,33.6268085538935
"42","059","01214033","42059","Greene","Greene County","06","H1","G4020",,,,"A","1491658067","5296792","+39.8477067","-080.2256552",-80.2228738584986,39.8537998098891
"02","188","01419979","02188","Northwest Arctic","Northwest Arctic Borough","04","H1","G4020",,,,"A","92369226065","12835515419","+67.0050655","-160.0210864",-160.006978536571,67.0081724431996
"20","051","00484995","20051","Ellis","Ellis County","06","H1","G4020",,"25700",,"A","2330762299","1197085","+38.9145967","-099.3173133",-99.3172316232345,38.9147512529048
"01","065","00161558","01065","Hale","Hale County","06","H1","G4020",,"46220",,"A","1667917734","32412739","+32.7527958","-087.6230608",-87.6291176815761,32.7626642245884
"01","105","00161579","01105","Perry","Perry County","06","H1","G4020",,,,"A","1863900621","10937769","+32.6390053","-087.2938269",-87.29440078538,32.6384656557572
"01","033","00161542","01033","Colbert","Colbert County","06","H1","G4020",,"22520",,"A","1535202321","79700278","+34.7031120","-087.8014569",-87.8049852867279,34.700433798363
"20","151","00485039","20151","Pratt","Pratt County","06","H1","G4020",,,,"A","1903740948","1771939","+37.6475943","-098.7401199",-98.7395957092339,37.6477353374051
"21","017","00516855","21017","Bourbon","Bourbon County","06","H1","G4020","336","30460",,"A","750439352","4829777","+38.2025623","-084.2098602",-84.2171399548866,38.206729951447
"47","149","01639787","47149","Rutherford","Rutherford County","06","H1","G4020","400","34980",,"A","1603892757","12406559","+35.8433688","-086.4172127",-86.416737895828,35.8427065264442
"13","075","00343878","13075","Cook","Cook County","06","H1","G4020",,,,"A","591606618","12386236","+31.1525157","-083.4294448",-83.430465067325,31.1539910285117
"20","101","00485015","20101","Lane","Lane County","06","H1","G4020",,,,"A","1858080220","551220","+38.4812863","-100.4661853",-100.46639844879,38.4813047181658
"40","059","01101817","40059","Harper","Harper County","06","H1","G4020",,,,"A","2689919308","5259447","+36.8003504","-099.6628052",-99.667401072948,36.7888025423362
"17","147","00424275","17147","Piatt","Piatt County","06","H1","G4020",,"16580",,"A","1137492084","754122","+40.0090327","-088.5923546",-88.5910866501972,40.0103527450663
"48","107","01383839","48107","Crosby","Crosby County","06","H1","G4020","352","31180",,"A","2331503429","3873557","+33.6091440","-101.2987099",-101.299958450769,33.6146250309387
"72","053","01804506","72053","Fajardo","Fajardo Municipio","13","H1","G4020","490","41980",,"A","77448650","195352769","+18.3863776","-065.5884540",-65.6065608131063,18.3622092520759
"01","063","00161557","01063","Greene","Greene County","06","H1","G4020",,"46220",,"A","1675782059","33416141","+32.8444965","-087.9642005",-87.9522309156083,32.8531388427425
"16","033","00399755","16033","Clark","Clark County","06","H1","G4020",,,,"A","4566524478","2476453","+44.2902180","-112.3546128",-112.351297511513,44.2839056342878
"19","109","00465243","19109","Kossuth","Kossuth County","06","H1","G4020",,,,"A","2519361795","4125592","+43.2124777","-094.2139830",-94.2067199305561,43.2041300298131
"72","151","01804556","72151","Yabucoa","Yabucoa Municipio","13","H1","G4020","490","41980",,"A","143005186","72592516","+18.0598584","-065.8598713",-65.8633023194209,18.0559662880738
"38","013","01034235","38013","Burke","Burke County","06","H1","G4020",,,,"A","2858179013","65714655","+48.7864534","-102.5200874",-102.518193492288,48.7910039093038
"37","063","01008550","37063","Durham","Durham County","06","H1","G4020","450","20500",,"A","741994332","29467007","+36.0338282","-078.8781246",-78.8765926948585,36.0360299243457
"19","085","00465231","19085","Harrison","Harrison County","06","H1","G4020","420","36540",,"A","1804814770","12411273","+41.6885844","-095.8271491",-95.8169208875504,41.6828527454534
"31","103","00835873","31103","Keya Paha","Keya Paha County","06","H1","G4020",,,,"A","2002257565","2192458","+42.8754803","-099.7183514",-99.712349711772,42.8788290643626
"19","187","00465282","19187","Webster","Webster County","06","H1","G4020",,"22700",,"A","1853677022","7190525","+42.4335786","-094.1758309",-94.1817743674805,42.427949168073
"17","151","00424277","17151","Pope","Pope County","06","H1","G4020",,,,"A","955326683","14329536","+37.4171687","-088.5423737",-88.5616201145662,37.4127561972982
"47","159","01639791","47159","Smith","Smith County","06","H1","G4020","400","34980",,"A","814020539","28690306","+36.2566451","-085.9419149",-85.9567145693397,36.2505340956456
"51","089","01502770","51089","Henry","Henry County","06","H1","G4020",,"32300",,"A","990284619","5269785","+36.7814785","-079.7592313",-79.8739525029805,36.6827726795551
"51","510","01498415","51510","Alexandria","Alexandria city","25","C7","G4020","548","47900","47894","F","38679383","1070216","+38.8192511","-077.0836695",-77.0862060583941,38.8184535854304
"19","101","00465239","19101","Jefferson","Jefferson County","06","H1","G4020",,"21840",,"A","1127999808","3524817","+41.0058877","-091.9666345",-91.9488728782237,41.0317620677679
"30","049","00793926","30049","Lewis and Clark","Lewis and Clark County","06","H1","G4020",,"25740",,"A","8957164719","101496098","+47.1320133","-112.3733673",-112.390455011419,47.1224429080938
"49","013","01448021","49013","Duchesne","Duchesne County","06","H1","G4020",,,,"A","8379502732","38797805","+40.2893927","-110.4295838",-110.425184460444,40.2982423212539
"40","003","01101789","40003","Alfalfa","Alfalfa County","06","H1","G4020",,,,"A","2244392665","38546676","+36.7297032","-098.3234449",-98.3239781797174,36.7309889110418
"48","119","01383846","48119","Delta","Delta County","06","H1","G4020",,,,"A","665192113","54648180","+33.3859329","-095.6733504",-95.6722708168054,33.3862927393105
"47","169","01648581","47169","Trousdale","Trousdale County","06","H6","G4020","400","34980",,"C","296143584","5960709","+36.3930297","-086.1566909",-86.1567527604089,36.3920428565528
"21","193","00516943","21193","Perry","Perry County","06","H1","G4020",,,,"A","879818914","7535303","+37.2412822","-083.2177723",-83.2214816028153,37.2442933232903
"46","039","01265781","46039","Deuel","Deuel County","06","H1","G4020",,,,"A","1612885709","35935421","+44.7562899","-096.6902393",-96.6679741403538,44.7600579518038
"41","029","01135853","41029","Jackson","Jackson County","06","H1","G4020","366","32780",,"A","7208597903","46766412","+42.4116214","-122.6756106",-122.728517876886,42.4321558891304
"72","067","01804514","72067","Hormigueros","Hormigueros Municipio","13","H1","G4020","364","32420",,"A","29384893","481","+18.1346949","-067.1161994",-67.1140222956005,18.1341807268301
"48","507","01384039","48507","Zavala","Zavala County","06","H1","G4020",,,,"A","3360268878","11208707","+28.8646523","-099.7598304",-99.7605956716833,28.8662114221082
"31","007","00835826","31007","Banner","Banner County","06","H1","G4020",,"42420",,"A","1932676688","397069","+41.5397495","-103.7262626",-103.710476768132,41.5459746701085
"19","121","00465249","19121","Madison","Madison County","06","H1","G4020","218","19780",,"A","1452999207","2983840","+41.3306216","-094.0151842",-94.0155619459066,41.3307142216737
"12","011","00295753","12011","Broward","Broward County","06","H1","G4020","370","33100","22744","A","3115289087","310801098","+26.1935353","-080.4766834",-80.4558842537237,26.1518560377677
"13","279","00345220","13279","Toombs","Toombs County","06","H1","G4020",,"47080",,"A","942778662","18086323","+32.1178118","-082.3306257",-82.3312929098847,32.1217203314226
"26","151","01623016","26151","Sanilac","Sanilac County","06","H1","G4020",,,,"A","2493046958","1624881028","+43.4491547","-082.6428148",-82.6457538571445,43.4433116084563
"48","397","01383984","48397","Rockwall","Rockwall County","06","H1","G4020","206","19100","19124","A","329224077","56057833","+32.8986766","-096.4044017",-96.4077810439559,32.8977580695866
"26","163","01623022","26163","Wayne","Wayne County","06","H1","G4020","220","19820","19804","A","1584501319","157900250","+42.2846636","-083.2619533",-83.2611328686446,42.2847454761316
"27","105","00659498","27105","Nobles","Nobles County","06","H1","G4020",,"49380",,"A","1852081296","19315969","+43.6776863","-095.7631323",-95.7533863656685,43.6742397821034
"27","001","00663198","27001","Aitkin","Aitkin County","06","H1","G4020",,,,"A","4718433588","449373340","+46.6024464","-093.4197600",-93.4154290882509,46.6082572905532
"38","071","01034215","38071","Ramsey","Ramsey County","06","H1","G4020",,,,"A","3070120687","299469855","+48.2661631","-098.7390310",-98.7201050468179,48.268943023495
"37","145","01008577","37145","Person","Person County","06","H1","G4020","450","20500",,"A","1016140154","31220109","+36.3863503","-078.9656233",-78.9718051426324,36.3900951244169
"20","195","00485058","20195","Trego","Trego County","06","H1","G4020",,,,"A","2303727352","26281951","+38.9213022","-099.8654230",-99.8727358362388,38.9143249143728
"28","151","00695796","28151","Washington","Washington County","06","H1","G4020",,"24740",,"A","1879404534","92160904","+33.2731740","-090.9444459",-90.9474546435454,33.2836981018115
"48","133","01383852","48133","Eastland","Eastland County","06","H1","G4020",,,,"A","2399644792","14002299","+32.3246454","-098.8365596",-98.8323222503691,32.3270730707154
"28","055","00695751","28055","Issaquena","Issaquena County","06","H1","G4020",,,,"A","1069782879","73507456","+32.7555393","-091.0035351",-90.9892124113754,32.7413905566301
"48","123","01383844","48123","DeWitt","DeWitt County","06","H1","G4020",,,,"A","2354237927","3919919","+29.0823457","-097.3616543",-97.3567784450264,29.0820812941964
"48","005","01383788","48005","Angelina","Angelina County","06","H1","G4020",,"31260",,"A","2066264544","173315133","+31.2518963","-094.6111337",-94.6118485462412,31.254764583289
"45","081","01248016","45081","Saluda","Saluda County","06","H1","G4020","192","17900",,"A","1173136866","23197889","+34.0052784","-081.7279033",-81.7269282584043,34.0061055384769
"29","125","00758516","29125","Maries","Maries County","06","H1","G4020",,,,"A","1364867202","7638777","+38.1626154","-091.9236010",-91.9248859665546,38.1616348912374
"05","001","00063755","05001","Arkansas","Arkansas County","06","H1","G4020",,,,"A","2561013146","116378934","+34.2895697","-091.3765466",-91.3749047506099,34.2908080522521
"29","109","00758509","29109","Lawrence","Lawrence County","06","H1","G4020",,,,"A","1584393370","4247256","+37.1065898","-093.8305507",-93.8329365623447,37.1063512080091
"51","540","01789068","51540","Charlottesville","Charlottesville city","25","C7","G4020",,"16820",,"F","26533570","47161","+38.0376579","-078.4853806",-78.4854998847625,38.0374914785834
"17","011","00424207","17011","Bureau","Bureau County","06","H1","G4020","176","36837",,"A","2250935503","11472955","+41.4013043","-089.5283772",-89.5286557576738,41.4041459263944
"39","145","01074085","39145","Scioto","Scioto County","06","H1","G4020","170","39020",,"A","1580488534","15326840","+38.8148886","-082.9986750",-82.992831024986,38.803961941958
"37","115","01025834","37115","Madison","Madison County","06","H1","G4020","120","11700",,"A","1164497715","4840763","+35.8642073","-082.7126299",-82.7057582626561,35.8580358086072
"16","053","00395662","16053","Jerome","Jerome County","06","H1","G4020",,"46300",,"A","1547443957","13094559","+42.6913953","-114.2620858",-114.263941363868,42.6899047449116
"39","163","01074093","39163","Vinton","Vinton County","06","H1","G4020",,,,"A","1067997064","6792846","+39.2520418","-082.4859614",-82.4853500566897,39.2509849785705
"48","309","01383946","48309","McLennan","McLennan County","06","H1","G4020",,"47380",,"A","2686203607","59812996","+31.5495958","-097.2015108",-97.2017864999344,31.5523801521801
"16","037","00399758","16037","Custer","Custer County","06","H1","G4020",,,,"A","12748378763","42527191","+44.2733510","-114.2522675",-114.281712395505,44.241116379551
"19","089","00465233","19089","Howard","Howard County","06","H1","G4020",,,,"A","1225702842","931478","+43.3653125","-092.3219084",-92.3171989038787,43.3567673363736
"12","099","00295761","12099","Palm Beach","Palm Beach County","06","H1","G4020","370","33100","48424","A","5087468869","1084901519","+26.6491257","-080.4483542",-80.4365110483663,26.6475645688211
"13","181","01688000","13181","Lincoln","Lincoln County","06","H1","G4020",,"12260",,"A","544884786","121513274","+33.7921507","-082.4482992",-82.4512128043407,33.7936596460869
"01","013","00161532","01013","Butler","Butler County","06","H1","G4020",,,,"A","2012002531","2701198","+31.7516670","-086.6819689",-86.6802892153578,31.7524339428944
"47","165","01639794","47165","Sumner","Sumner County","06","H1","G4020","400","34980",,"A","1371288348","35636509","+36.4734430","-086.4597975",-86.4603553658536,36.4694088387155
"51","097","01480136","51097","King and Queen","King and Queen County","06","H1","G4020",,"40060",,"A","816268317","28893747","+37.7177719","-076.9055814",-76.8952824642286,37.7186360945218
"05","015","00066975","05015","Carroll","Carroll County","06","H1","G4020",,,,"A","1631823636","22397554","+36.3373704","-093.5409718",-93.5381811082913,36.3410829938226
"51","820","01498443","51820","Waynesboro","Waynesboro city","25","C7","G4020","277","44420",,"F","38771594","364644","+38.0671571","-078.9014197",-78.9013542095774,38.0674165810691
"02","220","01419981","02220","Sitka","Sitka City and Borough","03","H6","G4020",,,,"C","7433305220","5037858058","+57.1932044","-135.3673965",-135.304965119425,57.1797757863048
"41","051","01135861","41051","Multnomah","Multnomah County","06","H1","G4020","440","38900",,"A","1116560269","88220750","+45.5477107","-122.4173625",-122.414922836059,45.5467908911542
"47","061","01639748","47061","Grundy","Grundy County","06","H1","G4020",,,,"A","933545817","1755421","+35.3933855","-085.7103793",-85.722582393335,35.3883667039683
"27","057","00659474","27057","Hubbard","Hubbard County","06","H1","G4020",,,,"A","2398345712","190324761","+47.0955506","-094.9132898",-94.9166206034458,47.1086298019687
"38","081","01035303","38081","Sargent","Sargent County","06","H1","G4020",,,,"A","2223461624","21731922","+46.1082035","-097.6300507",-97.6307326898178,46.1079382983397
"36","089","00977309","36089","St. Lawrence","St. Lawrence County","06","H1","G4020",,"36300",,"A","6939877189","367298360","+44.4881125","-075.0743110",-75.0689522747147,44.4964021427219
"29","179","00758544","29179","Reynolds","Reynolds County","06","H1","G4020",,,,"A","2093946392","15373678","+37.3664637","-090.9722821",-90.9690828337181,37.362326557393
"06","067","00277298","06067","Sacramento","Sacramento County","06","H1","G4020","472","40900",,"A","2499983887","75425434","+38.4500161","-121.3404408",-121.344253814156,38.4493208546936
"39","125","01074075","39125","Paulding","Paulding County","06","H1","G4020",,,,"A","1078561236","6245396","+41.1189483","-084.5821249",-84.5801945587805,41.116620829606
"18","179","00450337","18179","Wells","Wells County","06","H1","G4020",,,,"A","953341278","5596377","+40.7352727","-085.2129742",-85.2212198575698,40.7291866469068
"51","063","01494354","51063","Floyd","Floyd County","06","H1","G4020",,,,"A","986585626","2190752","+36.9314331","-080.3502662",-80.3625657302789,36.9316012681641
"06","083","00277306","06083","Santa Barbara","Santa Barbara County","06","H1","G4020",,"42200",,"A","7084063392","2729751706","+34.5370572","-120.0399729",-120.03078618303,34.5383440861839
"54","005","01550009","54005","Boone","Boone County","06","H1","G4020","170","16620",,"A","1298967362","4305989","+38.0228143","-081.7135382",-81.7112126286701,38.0229965906461
"28","009","00695729","28009","Benton","Benton County","06","H1","G4020",,,,"A","1053131421","5279183","+34.8105184","-089.2002848",-89.1884754842495,34.8172864604365
"21","055","00516874","21055","Crittenden","Crittenden County","06","H1","G4020",,,,"A","932300421","28949527","+37.3581494","-088.1050103",-88.0972226536329,37.352715268333
"19","147","00465262","19147","Palo Alto","Palo Alto County","06","H1","G4020",,,,"A","1460400549","14428727","+43.0753374","-094.6690546",-94.6781370700755,43.0820642868821
"19","159","00465268","19159","Ringgold","Ringgold County","06","H1","G4020",,,,"A","1386932363","8723128","+40.7353342","-094.2442514",-94.2439719123795,40.7352022992555
"37","151","01008580","37151","Randolph","Randolph County","06","H1","G4020","268","24660",,"A","2026229975","19767036","+35.7099148","-079.8062153",-79.806006906385,35.7103417044404
"24","015","00596115","24015","Cecil","Cecil County","06","H1","G4020","428","37980","48864","A","896909987","185283751","+39.5623537","-075.9415852",-75.9481069727911,39.5624202546315
"18","171","00450400","18171","Warren","Warren County","06","H1","G4020","320","29200",,"A","944543945","4442743","+40.3526584","-087.3758466",-87.3533144839354,40.3469033296585
"31","077","00835860","31077","Greeley","Greeley County","06","H1","G4020",,,,"A","1475804204","2188872","+41.5675715","-098.5305655",-98.5212445201297,41.5674402953611
"31","095","00835869","31095","Jefferson","Jefferson County","06","H1","G4020",,,,"A","1476736210","14232352","+40.1757356","-097.1431027",-97.1427156563367,40.1757608617832
"31","151","00835897","31151","Saline","Saline County","06","H1","G4020",,,,"A","1486812294","5821039","+40.5168024","-097.1317550",-97.1409086995544,40.5240610865285
"21","119","00516906","21119","Knott","Knott County","06","H1","G4020",,,,"A","910427588","3453304","+37.3543684","-082.9525461",-82.9541313398125,37.3540523996236
"19","045","00465211","19045","Clinton","Clinton County","06","H1","G4020","209","17540",,"A","1799818625","39526969","+41.8980732","-090.5342431",-90.5319724290809,41.8980358084321
"27","063","00659477","27063","Jackson","Jackson County","06","H1","G4020",,,,"A","1820689416","42120425","+43.6711110","-095.1497314",-95.1541129519377,43.6741733016819
"27","039","00659465","27039","Dodge","Dodge County","06","H1","G4020","462","40340",,"A","1137724834","800245","+44.0207056","-092.8693529",-92.8620540342542,44.0225894660841
"27","047","00659469","27047","Freeborn","Freeborn County","06","H1","G4020",,"10660",,"A","1831756453","39305226","+43.6742019","-093.3502887",-93.34881585785,43.6738441803158
"06","009","01675885","06009","Calaveras","Calaveras County","06","H1","G4020",,,,"A","2641784992","43841871","+38.1838996","-120.5614415",-120.554132097974,38.2046068029696
"25","001","00606927","25001","Barnstable","Barnstable County","06","H1","G4020","148","12700",,"A","1021019039","2360316945","+41.7990145","-070.2118803",-70.2381374923083,41.7734492734782
"51","119","01480147","51119","Middlesex","Middlesex County","06","H1","G4020",,,,"A","337554148","208310591","+37.6069753","-076.5280819",-76.5059133430817,37.6227077716875
"42","065","01213674","42065","Jefferson","Jefferson County","06","H1","G4020",,,,"A","1689799802","11306230","+41.1380282","-079.0124190",-78.9994214565104,41.1281451271702
"18","089","00450495","18089","Lake","Lake County","06","H1","G4020","176","16980","23844","A","1291857838","331164016","+41.4722470","-087.3743368",-87.3763856000417,41.4722121301783
"47","003","01639723","47003","Bedford","Bedford County","06","H1","G4020","400","43180",,"A","1226719779","2980755","+35.5136604","-086.4582939",-86.4588856967299,35.5137978752796
"47","027","01648573","47027","Clay","Clay County","06","H1","G4020",,,,"A","612626856","59070611","+36.5457493","-085.5457173",-85.5438591879826,36.5511571100402
"17","029","00424216","17029","Coles","Coles County","06","H1","G4020",,"16660",,"A","1316447134","4621015","+39.5136797","-088.2207820",-88.2217534977604,39.5202961460851
"47","097","01639763","47097","Lauderdale","Lauderdale County","06","H1","G4020",,,,"A","1222389174","92231153","+35.7629507","-089.6277318",-89.6314442054434,35.7610127808388
"41","001","01135845","41001","Baker","Baker County","06","H1","G4020",,,,"A","7945996793","51832631","+44.7034268","-117.6919334",-117.675363456039,44.709174274769
"36","097","00974146","36097","Schuyler","Schuyler County","06","H1","G4020",,,,"A","850405405","36246373","+42.4197755","-076.9386030",-76.8751761312295,42.3937982949684
"26","159","01623020","26159","Van Buren","Van Buren County","06","H1","G4020",,,,"A","1574265761","1248571787","+42.2821497","-086.3060762",-86.3064148915296,42.2851055820478
"17","131","01784750","17131","Mercer","Mercer County","06","H1","G4020","209","19340",,"A","1453604361","19411909","+41.2056046","-090.7417698",-90.7413938886714,41.2053450175017
"21","127","00516910","21127","Lawrence","Lawrence County","06","H1","G4020",,,,"A","1076387827","11582519","+38.0744531","-082.7382903",-82.7347546612518,38.0678786159162
"21","175","00516934","21175","Morgan","Morgan County","06","H1","G4020",,,,"A","987114229","6889951","+37.9229402","-083.2589444",-83.2588931268188,37.9222809092995
"21","177","00516935","21177","Muhlenberg","Muhlenberg County","06","H1","G4020",,"16420",,"A","1210451475","31188648","+37.2138159","-087.1340919",-87.1420416640453,37.2157922671783
"17","049","00424226","17049","Effingham","Effingham County","06","H1","G4020",,"20820",,"A","1240007567","3172833","+39.0479445","-088.5928488",-88.5898533622181,39.059781940661
"47","105","01639767","47105","Loudon","Loudon County","06","H1","G4020","315","28940",,"A","593811362","46869993","+35.7350854","-084.3140848",-84.3118676685,35.7347792105374
"46","025","01266985","46025","Clark","Clark County","06","H1","G4020",,,,"A","2480181884","25627353","+44.8552107","-097.7249124",-97.7294962958043,44.8582538925814
"15","003","00365281","15003","Honolulu","Honolulu County","06","H6","G4020",,"46520",,"A","1555472299","4055017343","+21.5800225","-158.1234063",-164.736740347206,23.7186403965059
"12","041","00303633","12041","Gilchrist","Gilchrist County","06","H1","G4020","264","23540",,"A","905705573","14362143","+29.7234556","-082.7958011",-82.8003665306194,29.725822716152
"18","157","00450393","18157","Tippecanoe","Tippecanoe County","06","H1","G4020","320","29200",,"A","1292163432","11230872","+40.3891334","-086.8935538",-86.8940974128111,40.3886187334077
"42","109","01213686","42109","Snyder","Snyder County","06","H1","G4020","146","42780",,"A","851544549","7157945","+40.7554068","-077.0729288",-77.0701686698099,40.7698402428179
"48","277","01383925","48277","Lamar","Lamar County","06","H1","G4020",,"37580",,"A","2349626845","67098434","+33.6672628","-095.5703477",-95.5712007054451,33.6672620503456
"12","086","00295755","12086","Miami-Dade","Miami-Dade County","06","H1","G4020","370","33100","33124","A","4920565755","1376144237","+25.6105799","-080.4970989",-80.4986673175477,25.6089674857902
"31","057","00835850","31057","Dundy","Dundy County","06","H1","G4020",,,,"A","2381956151","3046331","+40.1801650","-101.6811327",-101.687961437849,40.1762352357795
"48","289","01383930","48289","Leon","Leon County","06","H1","G4020",,,,"A","2779462025","19328383","+31.3004926","-095.9956219",-95.9956906534071,31.2965068087419
"08","097","00198164","08097","Pitkin","Pitkin County","06","H1","G4020","233","24060",,"A","2514104907","6472577","+39.2175376","-106.9161587",-106.916577748981,39.2171057452219
"38","035","01034218","38035","Grand Forks","Grand Forks County","06","H1","G4020",,"24220",,"A","3719806629","8267350","+47.9260026","-097.4508510",-97.4569239404035,47.9219151858764
"18","091","00450507","18091","LaPorte","LaPorte County","06","H1","G4020","176","33140",,"A","1549512632","38822025","+41.5490129","-086.7447386",-86.7423662187146,41.54902155721
"18","057","00450356","18057","Hamilton","Hamilton County","06","H1","G4020","294","26900",,"A","1021354950","20951834","+40.0535070","-086.0217126",-86.0520142517152,40.0724894749734
"51","595","01498422","51595","Emporia","Emporia city","25","C7","G4020",,,,"F","17881071","165621","+36.6961820","-077.5359753",-77.5356107293027,36.6953299476569
"40","081","01101828","40081","Lincoln","Lincoln County","06","H1","G4020","416","36420",,"A","2466630673","34722233","+35.7031175","-096.8813917",-96.8808913750539,35.7029694977285
"20","071","00485002","20071","Greeley","Greeley County","06","H6","G4020",,,,"C","2016057905","0","+38.4804041","-101.8059697",-101.805968435155,38.4805374528106
"13","145","00326700","13145","Harris","Harris County","06","H1","G4020","194","17980",,"A","1201300628","23651059","+32.7315494","-084.9124320",-84.9089881157173,32.7360040874671
"13","251","00350204","13251","Screven","Screven County","06","H1","G4020",,,,"A","1672540367","26152057","+32.7447512","-081.6175849",-81.6119345544464,32.7505866271117
"72","127","01804544","72127","San Juan","San Juan Municipio","13","H1","G4020","490","41980",,"A","124029895","75277894","+18.4222485","-066.0690807",-66.068325526455,18.4222580561195
"48","433","01384002","48433","Stonewall","Stonewall County","06","H1","G4020",,,,"A","2373238700","10177387","+33.1795797","-100.2538069",-100.25330550681,33.1791243872827
"39","069","01074047","39069","Henry","Henry County","06","H1","G4020",,,,"A","1077461471","9687647","+41.3315843","-084.0688996",-84.0682304212536,41.3338851660667
"33","009","00873178","33009","Grafton","Grafton County","06","H1","G4020",,"30100",,"A","4425254602","106459251","+43.9264391","-071.8424242",-71.8207197904474,43.9406663150244
"29","145","00758527","29145","Newton","Newton County","06","H1","G4020","309","27900",,"A","1618106494","4715004","+36.9083713","-094.3350340",-94.3392465044696,36.905508842384
"18","129","00450383","18129","Posey","Posey County","06","H1","G4020",,"21780",,"A","1060259608","25787556","+38.0276138","-087.8686526",-87.8684711825738,38.021891551821
"48","311","01383947","48311","McMullen","McMullen County","06","H1","G4020",,,,"A","2952065878","43985814","+28.3849220","-098.5788529",-98.5678411194887,28.3526879601913
"17","035","00424219","17035","Cumberland","Cumberland County","06","H1","G4020",,"16660",,"A","895989980","2538006","+39.2731210","-088.2406193",-88.2401981661555,39.2733468255191
"13","297","00351264","13297","Walton","Walton County","06","H1","G4020","122","12060",,"A","846447052","8248719","+33.7838866","-083.7318290",-83.7338466261784,33.7815571316202
"27","121","00659506","27121","Pope","Pope County","06","H1","G4020",,,,"A","1734075761","123230761","+45.5896228","-095.4467052",-95.4444821595408,45.5860205994388
"51","157","01673976","51157","Rappahannock","Rappahannock County","06","H1","G4020","548","47900","47894","A","689900924","2142396","+38.6845215","-078.1688241",-78.1592301972565,38.6847722239195
"51","009","01480095","51009","Amherst","Amherst County","06","H1","G4020",,"31340",,"A","1227554628","12898694","+37.6293036","-079.1546672",-79.1451431275436,37.6047919172078
"06","111","00277320","06111","Ventura","Ventura County","06","H1","G4020","348","37100",,"A","4771987962","947345370","+34.3587415","-119.1331432",-119.126027192612,34.3575285168864
"17","033","00424218","17033","Crawford","Crawford County","06","H1","G4020",,,,"A","1149031255","5744821","+39.0027865","-087.7606193",-87.7595511477602,39.0026980674061
"08","093","00198162","08093","Park","Park County","06","H1","G4020","216","19740",,"A","5682182508","43519840","+39.1189141","-105.7176479",-105.717174715667,39.1193028617026
"06","037","00277283","06037","Los Angeles","Los Angeles County","06","H1","G4020","348","31080","31084","A","10511861492","1793485467","+34.1963983","-118.2618616",-118.261013849929,34.1979978626588
"04","027","00023901","04027","Yuma","Yuma County","06","H1","G4020",,"49740",,"A","14280777606","13248642","+32.7739424","-113.9109050",-113.905618756593,32.7696188927094
"13","129","00356672","13129","Gordon","Gordon County","06","H1","G4020","174","15660",,"A","923182326","5729532","+34.5096669","-084.8738622",-84.8759139253506,34.5031701949435
"19","025","00465202","19025","Calhoun","Calhoun County","06","H1","G4020",,,,"A","1475894599","5873827","+42.3861699","-094.6436829",-94.6404136046963,42.3851848525597
"12","055","00295756","12055","Highlands","Highlands County","06","H1","G4020",,"42700",,"A","2635685460","230708988","+27.3410799","-081.3423534",-81.3410379055862,27.3433797347117
"51","580","01789069","51580","Covington","Covington city","25","C7","G4020",,,,"F","14163842","521492","+37.7810603","-079.9854337",-79.9867558926245,37.778616181468
"50","017","01461765","50017","Orange","Orange County","06","H1","G4020",,"30100",,"A","1779395566","12010320","+44.0033924","-072.3696871",-72.3768216077845,44.0056617687497
"20","113","00485021","20113","McPherson","McPherson County","06","H1","G4020",,"32700",,"A","2326547432","6003328","+38.3958120","-097.6474893",-97.6480798696405,38.3916666452778
"04","021","00025447","04021","Pinal","Pinal County","06","H1","G4020","429","38060",,"A","13897997152","22344370","+32.9185209","-111.3663396",-111.344739895507,32.9043665121898
"39","051","01074038","39051","Fulton","Fulton County","06","H1","G4020","534","45780",,"A","1050103171","4586248","+41.5972639","-084.1242667",-84.1300795240172,41.6017989099508
"08","003","00198117","08003","Alamosa","Alamosa County","06","H1","G4020",,,,"A","1871465874","1847610","+37.5684423","-105.7880414",-105.788288196929,37.5728931402209
"12","017","00295752","12017","Citrus","Citrus County","06","H1","G4020",,"26140",,"A","1507142302","495547944","+28.8436402","-082.5248099",-82.5201067311355,28.8475696914207
"72","049","01804504","72049","Culebra","Culebra Municipio","13","H1","G4020",,,,"A","30115054","407158805","+18.3265989","-065.3077200",-65.3008009927311,18.3233669793864
"72","051","01804505","72051","Dorado","Dorado Municipio","13","H1","G4020","490","41980",,"A","59870092","79238790","+18.4743757","-066.2619727",-66.2620306808519,18.4720209619612
"47","041","01639738","47041","DeKalb","DeKalb County","06","H1","G4020",,,,"A","788430955","63639368","+35.9822191","-085.8335959",-85.8327516540285,35.9798606620723
"42","031","01210234","42031","Clarion","Clarion County","06","H1","G4020",,,,"A","1556156290","23332096","+41.1981594","-079.4203691",-79.4209635407789,41.1923895368496
"46","097","01265777","46097","Miner","Miner County","06","H1","G4020",,,,"A","1476734131","4537900","+44.0215411","-097.6081220",-97.6102451711007,44.0219511838896
"46","073","01265778","46073","Jerauld","Jerauld County","06","H1","G4020",,"26700",,"A","1362677263","16727973","+44.0634099","-098.6231702",-98.6296749711406,44.0663458318047
"18","031","00450345","18031","Decatur","Decatur County","06","H1","G4020","294","24700",,"A","964946132","1955432","+39.3059799","-085.4998310",-85.5011430488422,39.3069999342924
"18","037","00451675","18037","Dubois","Dubois County","06","H1","G4020",,"27540",,"A","1106611849","20897444","+38.3733441","-086.8733845",-86.8798021177475,38.36427643317
"51","057","01480118","51057","Essex","Essex County","06","H1","G4020",,,,"A","665855329","74795284","+37.9394802","-076.9418713",-76.9408852763233,37.9390693081127
"45","089","01248018","45089","Williamsburg","Williamsburg County","06","H1","G4020",,,,"A","2419477548","7461492","+33.6264617","-079.7164740",-79.7277120284269,33.6199254930641
"36","031","00974114","36031","Essex","Essex County","06","H1","G4020",,,,"A","4646744234","316359504","+44.1096005","-073.7784307",-73.7727094403391,44.1172175226181
"19","195","00465286","19195","Worth","Worth County","06","H1","G4020",,"32380",,"A","1036314923","4709127","+43.3734910","-093.2485332",-93.2608475496565,43.3773984485017
"40","063","01101819","40063","Hughes","Hughes County","06","H1","G4020",,,,"A","2083606775","26430453","+35.0529339","-096.2511829",-96.2501879728407,35.0483629463449
"51","027","01497431","51027","Buchanan","Buchanan County","06","H1","G4020",,,,"A","1302386904","2804451","+37.2681198","-082.0381508",-82.0360146572771,37.2666155974492
"51","005","01673675","51005","Alleghany","Alleghany County","06","H1","G4020",,,,"A","1156608818","8170515","+37.7879048","-080.0086690",-80.0061751874557,37.7877775497799
"28","087","00695767","28087","Lowndes","Lowndes County","06","H1","G4020","200","18060",,"A","1309092521","28545194","+33.4714237","-088.4397227",-88.4433134871092,33.4729092688713
"18","143","00450386","18143","Scott","Scott County","06","H1","G4020","350","42500",,"A","493136550","6078495","+38.6794309","-085.7518981",-85.7474680991926,38.6850699522826
"08","099","00198165","08099","Prowers","Prowers County","06","H1","G4020",,,,"A","4243429484","15345176","+37.9581814","-102.3921613",-102.393348977427,37.9551831858273
"48","435","01384003","48435","Sutton","Sutton County","06","H1","G4020",,,,"A","3765674776","1277066","+30.5221852","-100.5133594",-100.538187495254,30.4982930281191
"72","121","01804541","72121","Sabana Grande","Sabana Grande Municipio","13","H1","G4020","364","41900",,"A","94050247","25323","+18.0844832","-066.9476086",-66.9433118196564,18.0836334372763
"40","101","01101838","40101","Muskogee","Muskogee County","06","H1","G4020","538","34780",,"A","2099505908","76119907","+35.6175506","-095.3839106",-95.3794738181777,35.6161390424653
"29","043","00758476","29043","Christian","Christian County","06","H1","G4020",,"44180",,"A","1457250993","3004960","+36.9697388","-093.1876139",-93.1888539044309,36.969571697006
"72","039","01804499","72039","Ciales","Ciales Municipio","13","H1","G4020","490","41980",,"A","172310203","459604","+18.2959127","-066.5155884",-66.5164422149202,18.2890180066879
"28","073","00695760","28073","Lamar","Lamar County","06","H1","G4020","279","25620",,"A","1286381289","8599922","+31.1975865","-089.5063691",-89.5086725365981,31.2060330455133
"18","137","00450385","18137","Ripley","Ripley County","06","H1","G4020",,,,"A","1156231106","4243112","+39.1002257","-085.2604937",-85.2623863739927,39.10345466592
"38","057","01034233","38057","Mercer","Mercer County","06","H1","G4020",,,,"A","2700790004","180823533","+47.3071473","-101.8333279",-101.8314892421,47.3091802573897
"13","147","01687995","13147","Hart","Hart County","06","H1","G4020",,,,"A","601970613","63521436","+34.3487328","-082.9632900",-82.9642475975551,34.3508983325138
"22","049","00558592","22049","Jackson","Jackson Parish","15","H1","G4020",,,,"A","1474183476","28727342","+32.3042901","-092.5616997",-92.5577401116979,32.3020349252218
"51","133","01480152","51133","Northumberland","Northumberland County","06","H1","G4020",,,,"A","495828046","243886813","+37.8569736","-076.3796872",-76.3795212301892,37.8546632650126
"48","157","01383864","48157","Fort Bend","Fort Bend County","06","H1","G4020","288","26420",,"A","2231956074","61062478","+29.5266017","-095.7710149",-95.7708885981262,29.527492671348
"55","047","01581083","55047","Green Lake","Green Lake County","06","H1","G4020",,,,"A","905314776","79202663","+43.7802469","-088.9703796",-89.0448597041848,43.8003788931217
"30","073","01719587","30073","Pondera","Pondera County","06","H1","G4020",,,,"A","4207608384","43980663","+48.2286037","-112.2207612",-112.226687931627,48.2279328058754
"55","127","01581123","55127","Walworth","Walworth County","06","H1","G4020","376","48580",,"A","1438529014","54833465","+42.6681095","-088.5417306",-88.5419040708715,42.6684869829395
"32","021","00858644","32021","Mineral","Mineral County","06","H1","G4020",,,,"A","9719815181","155746679","+38.5166470","-118.4162794",-118.435214254131,38.5388085858758
"17","057","00424230","17057","Fulton","Fulton County","06","H1","G4020",,"37900",,"A","2242134871","43972444","+40.4652401","-090.2022689",-90.207481882463,40.4727799619253
"36","103","00974149","36103","Suffolk","Suffolk County","06","H1","G4020","408","35620","35004","A","2361568402","3784825485","+40.9435540","-072.6922183",-72.6852412619812,40.9404610588351
"18","161","00450395","18161","Union","Union County","06","H1","G4020","178","17140",,"A","417480644","10326434","+39.6231109","-084.9251523",-84.9251420286423,39.6255458453094
"29","119","00758518","29119","McDonald","McDonald County","06","H1","G4020",,,,"A","1397247160","520251","+36.6302180","-094.3439556",-94.3483586551467,36.6286739949987
"31","157","00835900","31157","Scotts Bluff","Scotts Bluff County","06","H1","G4020",,"42420",,"A","1915079305","15397684","+41.8503306","-103.7015494",-103.707946639939,41.8506075383182
"35","047","00929114","35047","San Miguel","San Miguel County","06","H1","G4020","106","29780",,"A","12228666254","51380263","+35.4768585","-104.8035189",-104.815897957241,35.4805846794127
"01","081","00161566","01081","Lee","Lee County","06","H1","G4020","194","12220",,"A","1573514768","21526461","+32.6040644","-085.3530477",-85.3555627039695,32.6011364840717
"48","367","01383969","48367","Parker","Parker County","06","H1","G4020","206","19100","23104","A","2340624036","16510091","+32.7770964","-097.8059049",-97.8050966635961,32.7776458130496
"38","021","01035622","38021","Dickey","Dickey County","06","H1","G4020",,,,"A","2930554406","27619632","+46.1077559","-098.4965182",-98.5047043560098,46.1101251059401
"38","003","01034225","38003","Barnes","Barnes County","06","H1","G4020",,,,"A","3863118055","56580900","+46.9425500","-098.0701946",-98.0715401200102,46.9361064668777
"27","143","00659516","27143","Sibley","Sibley County","06","H1","G4020",,,,"A","1525073949","30338004","+44.5757343","-094.2301232",-94.2321420772196,44.5794783729128
"13","293","00346759","13293","Upson","Upson County","06","H1","G4020","122","45580",,"A","837774874","10585407","+32.8818367","-084.2922831",-84.2993435146145,32.8812700423761
"06","097","01657246","06097","Sonoma","Sonoma County","06","H1","G4020","488","42220",,"A","4080764059","498182342","+38.5251824","-122.9261095",-122.922544657884,38.525292574998
"26","033","01622959","26033","Chippewa","Chippewa County","06","H1","G4020",,"42300",,"A","4036515589","2952489038","+46.3218192","-084.5206297",-84.5293679243276,46.3281784324027
"16","019","00395407","16019","Bonneville","Bonneville County","06","H1","G4020","292","26820",,"A","4832872006","88855960","+43.3951708","-111.6218783",-111.614752704879,43.3877423793742
"13","013","00356976","13013","Barrow","Barrow County","06","H1","G4020","122","12060",,"A","417082276","4909657","+33.9920094","-083.7123025",-83.7127549805332,33.9931962064335
"13","183","00326719","13183","Long","Long County","06","H1","G4020","496","25980",,"A","1037013527","8855056","+31.7495633","-081.7428697",-81.7457669756125,31.752584831034
"48","271","01383921","48271","Kinney","Kinney County","06","H1","G4020",,,,"A","3522525626","13124948","+29.3470865","-100.4177003",-100.417946617937,29.350207578471
"40","115","01101845","40115","Ottawa","Ottawa County","06","H1","G4020","309","33060",,"A","1219409732","35714886","+36.8357635","-094.8026814",-94.8104296209967,36.8355137489696
"42","033","01209175","42033","Clearfield","Clearfield County","06","H1","G4020","524","20180",,"A","2964714508","23932643","+41.0002489","-078.4737490",-78.4741251098591,41.0001918546074
"26","037","01622961","26037","Clinton","Clinton County","06","H1","G4020",,"29620",,"A","1467017475","21098128","+42.9504550","-084.5916949",-84.6015165533182,42.9436523661543
"72","133","01804547","72133","Santa Isabel","Santa Isabel Municipio","13","H1","G4020","434","42180",,"A","88150113","111135066","+17.9529217","-066.3875885",-66.3866938242692,17.9530033162336
"17","135","01784866","17135","Montgomery","Montgomery County","06","H1","G4020",,,,"A","1822726466","15458338","+39.2280681","-089.4781407",-89.4788485523391,39.2310459340727
"28","003","00711755","28003","Alcorn","Alcorn County","06","H1","G4020","539","18420",,"A","1036110405","3408033","+34.8865689","-088.5811091",-88.5802645598802,34.8807714578284
"28","071","00695759","28071","Lafayette","Lafayette County","06","H1","G4020",,"37060",,"A","1636080566","123113358","+34.3530780","-089.4853847",-89.4849192699433,34.3567578080069
"22","043","00558567","22043","Grant","Grant Parish","15","H1","G4020",,"10780",,"A","1665429793","56013945","+31.5977873","-092.5617156",-92.5595204512499,31.5997036789699
"29","005","00758457","29005","Atchison","Atchison County","06","H1","G4020",,,,"A","1417462632","7359186","+40.4318460","-095.4375546",-95.428093471577,40.4308475736628
"17","115","00424256","17115","Macon","Macon County","06","H1","G4020",,"19500",,"A","1503684109","13406663","+39.8602372","-088.9615288",-88.9615519315549,39.8600027880769
"26","149","01625034","26149","St. Joseph","St. Joseph County","06","H1","G4020","310","44780",,"A","1296536370","52915575","+41.9114878","-085.5228703",-85.5277446789422,41.9144142465629
"17","055","00424229","17055","Franklin","Franklin County","06","H1","G4020",,,,"A","1059101590","58404682","+37.9918516","-088.9263215",-88.9241655023401,37.9922926916125
"30","033","01716058","30033","Garfield","Garfield County","06","H1","G4020",,,,"A","12112233259","446864356","+47.2671843","-106.9959912",-106.992889064826,47.2776387249243
"31","001","00835823","31001","Adams","Adams County","06","H1","G4020",,"25580",,"A","1458872841","2477677","+40.5206322","-098.5000441",-98.5012089616843,40.524468710261
"27","109","00659500","27109","Olmsted","Olmsted County","06","H1","G4020","462","40340",,"A","1692860704","3226228","+43.9994987","-092.4100985",-92.4017709320414,44.003752507437
"34","039","00882235","34039","Union","Union County","06","H1","G4020","408","35620","35084","A","266163527","7053423","+40.6598707","-074.3086957",-74.3081414245593,40.6598994131113
"72","139","01804550","72139","Trujillo Alto","Trujillo Alto Municipio","13","H1","G4020","490","41980",,"A","53786137","1592599","+18.3353871","-066.0037874",-65.9991239838535,18.3363113739702
"01","097","00161575","01097","Mobile","Mobile County","06","H1","G4020","380","33660",,"A","3184158350","1073926668","+30.6845725","-088.1965682",-88.1975233535396,30.6851516211167
"46","087","01265773","46087","McCook","McCook County","06","H1","G4020",,"43620",,"A","1487184878","6895716","+43.6804155","-097.3580479",-97.3684431808886,43.6743108455283
"01","057","00161554","01057","Fayette","Fayette County","06","H1","G4020",,,,"A","1625693288","4330881","+33.7161568","-087.7642923",-87.7388619701249,33.721206150474
"01","017","00161534","01017","Chambers","Chambers County","06","H1","G4020","122","29300",,"A","1545085607","16971700","+32.9155039","-085.3940321",-85.3920429512888,32.9143722297655
"37","131","01008575","37131","Northampton","Northampton County","06","H1","G4020","468","40260",,"A","1389988119","35935817","+36.4217739","-077.3983518",-77.396821209887,36.4177312434144
"08","081","00198156","08081","Moffat","Moffat County","06","H1","G4020","525","18780",,"A","12284943819","19803411","+40.6108644","-108.2171545",-108.207290603936,40.6184222200142
"21","087","00516890","21087","Green","Green County","06","H1","G4020",,"15820",,"A","740863549","7102448","+37.2753816","-085.5784829",-85.5531056747806,37.2641094187647
"18","047","00450352","18047","Franklin","Franklin County","06","H1","G4020","178","17140",,"A","995658324","17155849","+39.4097620","-085.0669641",-85.0602848846525,39.4148645226538
"37","013","01026333","37013","Beaufort","Beaufort County","06","H1","G4020","272","47820",,"A","2155109574","338655073","+35.4823128","-076.8420144",-76.8453144054589,35.4869838150047
"72","073","01804517","72073","Jayuya","Jayuya Municipio","13","H1","G4020",,"27580",,"A","115340543","3091","+18.2111522","-066.5868700",-66.5884453339696,18.2106459125684
"38","015","01035614","38015","Burleigh","Burleigh County","06","H1","G4020",,"13900",,"A","4228659152","92691317","+46.9788291","-100.4695326",-100.468737737363,46.9774520619942
"37","159","01008583","37159","Rowan","Rowan County","06","H1","G4020","172","16740",,"A","1324727249","32231668","+35.6413551","-080.5217214",-80.5247717484955,35.6394734631868
"26","071","01622978","26071","Iron","Iron County","06","H1","G4020",,,,"A","3019919277","116800609","+46.1702542","-088.5405261",-88.5305528693508,46.2086670875196
"27","067","00659479","27067","Kandiyohi","Kandiyohi County","06","H1","G4020",,"48820",,"A","2065210393","168281911","+45.1527137","-095.0049812",-95.0047424624455,45.1523823450535
"21","237","00516965","21237","Wolfe","Wolfe County","06","H1","G4020",,,,"A","575419135","1505160","+37.7438929","-083.4951095",-83.4931751503525,37.7393195913827
"48","149","01383860","48149","Fayette","Fayette County","06","H1","G4020",,,,"A","2460316895","25574677","+29.8778861","-096.9212309",-96.9197617179509,29.8767867937632
"46","081","01266996","46081","Lawrence","Lawrence County","06","H1","G4020","452","43940",,"A","2072127357","667509","+44.3487670","-103.8049474",-103.792224515345,44.358627180488
"23","029","00581300","23029","Washington","Washington County","06","H1","G4020",,,,"A","6637431507","1799884965","+44.9670088","-067.6093542",-67.6090594873315,44.9694591011365
"48","045","01383808","48045","Briscoe","Briscoe County","06","H1","G4020",,,,"A","2330991073","4068657","+34.5251725","-101.2058930",-101.208593305127,34.5302641046883
"26","131","01623008","26131","Ontonagon","Ontonagon County","06","H1","G4020",,,,"A","3395416179","6292279424","+47.2166022","-089.5004631",-89.4347315443191,47.0221845765313
"28","015","00695732","28015","Carroll","Carroll County","06","H1","G4020",,"24900",,"A","1627263542","16304134","+33.4407948","-089.9188870",-89.9201976987815,33.4485258506093
"41","003","01155126","41003","Benton","Benton County","06","H1","G4020","440","18700",,"A","1748712549","7740248","+44.4938816","-123.4246641",-123.429249066212,44.4917990421233
"27","133","00659512","27133","Rock","Rock County","06","H1","G4020",,,,"A","1249560753","698231","+43.6695866","-096.2632376",-96.2532076470921,43.6746303971906
"42","063","01213673","42063","Indiana","Indiana County","06","H1","G4020","430","26860",,"A","2142730129","18052433","+40.6514319","-079.0875451",-79.0875470867324,40.652051644286
"22","061","00558077","22061","Lincoln","Lincoln Parish","15","H1","G4020","384","40820",,"A","1221806127","1897706","+32.6018231","-092.6623026",-92.6648152838635,32.6016373737214
"42","099","01213682","42099","Perry","Perry County","06","H1","G4020","276","25420",,"A","1428244411","10591167","+40.3977795","-077.2663284",-77.2622958161908,40.3984096200789
"46","137","01266993","46137","Ziebach","Ziebach County","06","H1","G4020",,,,"A","5079588972","24212302","+44.9897638","-101.6608274",-101.665858436532,44.9804118511221
"48","203","01383887","48203","Harrison","Harrison County","06","H1","G4020",,"30980",,"A","2331138836","40651525","+32.5479914","-094.3744344",-94.3714865547603,32.5481331977678
"26","013","01622949","26013","Baraga","Baraga County","06","H1","G4020",,,,"A","2326914366","441619428","+46.6958592","-088.3618101",-88.3521803449012,46.6997094485088
"40","131","01101853","40131","Rogers","Rogers County","06","H1","G4020","538","46140",,"A","1749883768","92870077","+36.3777941","-095.6013835",-95.6043730203236,36.3715618823504
"29","019","00758464","29019","Boone","Boone County","06","H1","G4020","190","17860",,"A","1775568659","14233911","+38.9898614","-092.3102022",-92.3096802496713,38.9906151272681
"72","097","01804529","72097","Mayagez","Mayagez Municipio","13","H1","G4020","364","32420",,"A","201174433","508705765","+18.1641255","-067.8933331",-67.6050637583296,18.1831012969302
"40","015","01101795","40015","Caddo","Caddo County","06","H1","G4020",,,,"A","3309366436","32099077","+35.1679202","-098.3810447",-98.3751581878068,35.1744060360798
"08","059","00198145","08059","Jefferson","Jefferson County","06","H1","G4020","216","19740",,"A","1979623397","25204513","+39.5795106","-105.2454620",-105.250466792686,39.5864284092179
"54","011","01550012","54011","Cabell","Cabell County","06","H1","G4020","170","26580",,"A","727837358","18122698","+38.4195778","-082.2433966",-82.2417166787051,38.4202968763256
"48","383","01383977","48383","Reagan","Reagan County","06","H1","G4020",,,,"A","3044049120","1792716","+31.3751911","-101.5143954",-101.523008413573,31.3661921291136
"05","141","00069904","05141","Van Buren","Van Buren County","06","H1","G4020",,,,"A","1838244470","37694051","+35.5829532","-092.5159757",-92.5156877896913,35.5806553789584
"08","117","00198174","08117","Summit","Summit County","06","H1","G4020",,"14720",,"A","1575590637","28283537","+39.6210227","-106.1375545",-106.116379137222,39.6341708059888
"20","035","00484987","20035","Cowley","Cowley County","06","H1","G4020","556","49060",,"A","2915648165","17322935","+37.2345068","-096.8372468",-96.8374891768892,37.2377526609457
"05","071","00066863","05071","Johnson","Johnson County","06","H1","G4020",,,,"A","1708980734","58598404","+35.5733586","-093.4663223",-93.4598811568516,35.5701227411307
"36","041","00974119","36041","Hamilton","Hamilton County","06","H1","G4020",,,,"A","4447989353","234204421","+43.6578786","-074.5024556",-74.4973551336488,43.6611216289582
"51","045","01673664","51045","Craig","Craig County","06","H1","G4020",,"40220",,"A","849770459","2793174","+37.4736031","-080.2310507",-80.2113954216584,37.4817063904066
"48","083","01383827","48083","Coleman","Coleman County","06","H1","G4020",,,,"A","3270933226","47963343","+31.9142052","-099.3466223",-99.4536376506623,31.7732068679963
"02","290","01419987","02290","Yukon-Koyukuk","Yukon-Koyukuk Census Area","05","H5","G4020",,,,"S","377038836685","5945279912","+65.3757271","-151.5778496",-151.389616024915,65.5086521547741
"04","017","00042808","04017","Navajo","Navajo County","06","H1","G4020",,"43320",,"A","25770517979","24125805","+35.3907852","-110.3210248",-110.321396003813,35.3995733713584
"28","085","00695766","28085","Lincoln","Lincoln County","06","H1","G4020","298","15020",,"A","1518269800","5291052","+31.5352155","-090.4535663",-90.4539712434166,31.5323843939046
"48","357","01383964","48357","Ochiltree","Ochiltree County","06","H1","G4020",,,,"A","2376792059","1331778","+36.2787442","-100.8158636",-100.815653969424,36.2784137139308
"48","103","01383837","48103","Crane","Crane County","06","H1","G4020",,,,"A","2033319695","1695980","+31.4227965","-102.4877739",-102.515568460279,31.4284974444794
"56","003","01605067","56003","Big Horn","Big Horn County","06","H1","G4020",,,,"A","8124681755","55228616","+44.5251167","-107.9948477",-107.995198768216,44.5267152135426
"47","081","01639756","47081","Hickman","Hickman County","06","H1","G4020",,,,"A","1586324709","373710","+35.8023275","-087.4671159",-87.4733082278125,35.8032506791112
"28","143","00695792","28143","Tunica","Tunica County","06","H1","G4020","368","32820",,"A","1177611241","67530029","+34.6522011","-090.3717697",-90.3754987097258,34.6519495512776
"29","081","00758495","29081","Harrison","Harrison County","06","H1","G4020",,,,"A","1871309893","10070644","+40.3456200","-093.9925818",-93.9920637275927,40.3546685833695
"72","029","01804494","72029","Canvanas","Canvanas Municipio","13","H1","G4020","490","41980",,"A","85127777","364682","+18.3298720","-065.8851394",-65.8878876071212,18.3289932220414
"18","005","00451683","18005","Bartholomew","Bartholomew County","06","H1","G4020","294","18020",,"A","1054009620","6674332","+39.2058430","-085.8979988",-85.8976029731581,39.2059705720706
"13","223","00349912","13223","Paulding","Paulding County","06","H1","G4020","122","12060",,"A","808928487","5212751","+33.9210299","-084.8671693",-84.8672885029759,33.9205455549211
"39","015","01074020","39015","Brown","Brown County","06","H1","G4020","178","17140",,"A","1269138600","8895015","+38.9313769","-083.8667723",-83.8674279187242,38.9340476575572
"47","141","01639783","47141","Putnam","Putnam County","06","H1","G4020",,"18260",,"A","1038860580","3777708","+36.1409404","-085.4961801",-85.4951907240213,36.1408328072454
"38","101","01034231","38101","Ward","Ward County","06","H1","G4020",,"33500",,"A","5213464365","111251907","+48.2166858","-101.5405369",-101.541784417721,48.2217054336405
"25","027","00606940","25027","Worcester","Worcester County","06","H4","G4020","148","49340",,"N","3912554985","177455990","+42.3116934","-071.9402820",-71.9077266260858,42.3513950816635
"39","091","01074058","39091","Logan","Logan County","06","H1","G4020","198","13340",,"A","1187534495","21593254","+40.3875532","-083.7663430",-83.7658501733835,40.3884733431656
"06","031","00277280","06031","Kings","Kings County","06","H1","G4020","260","25260",,"A","3600883803","3162664","+36.0724780","-119.8155301",-119.815502709414,36.0753604528832
"06","073","00277301","06073","San Diego","San Diego County","06","H1","G4020",,"41740",,"A","10904373558","817404622","+33.0236041","-116.7761174",-116.77020466435,33.0281863939916
"72","123","01804542","72123","Salinas","Salinas Municipio","13","H1","G4020","490","17640",,"A","179731087","115840728","+17.9714853","-066.2622515",-66.2619756610439,17.9729540130779
"13","079","00342918","13079","Crawford","Crawford County","06","H1","G4020","356","31420",,"A","841521988","3988980","+32.7094283","-083.9791874",-83.9863423246465,32.7145016625647
"72","103","01804532","72103","Naguabo","Naguabo Municipio","13","H1","G4020","490","41980",,"A","133799723","53351779","+18.2110697","-065.7357490",-65.7360948748421,18.2110304405
"29","037","00758473","29037","Cass","Cass County","06","H1","G4020","312","28140",,"A","1804223305","14963263","+38.6464737","-094.3545467",-94.3548163135388,38.6469784457349
"36","027","00974112","36027","Dutchess","Dutchess County","06","H1","G4020","408","39100",,"A","2060720815","76913736","+41.7547699","-073.7400411",-73.7428630516488,41.7651474406388
"48","477","01384024","48477","Washington","Washington County","06","H1","G4020","288","14780",,"A","1564854987","45471813","+30.2150752","-096.4102717",-96.4034437639205,30.2145304261146
"08","101","00198166","08101","Pueblo","Pueblo County","06","H1","G4020","444","39380",,"A","6179964847","30219283","+38.1706581","-104.4898924",-104.512845554776,38.1734202345182
"29","067","00758488","29067","Douglas","Douglas County","06","H1","G4020",,,,"A","2107274105","2520175","+36.9465168","-092.5158918",-92.49880576617,36.93259759478
"38","009","01034227","38009","Bottineau","Bottineau County","06","H1","G4020",,,,"A","4321075833","74935382","+48.7944116","-100.8312572",-100.833304015519,48.7921677979528
"37","051","01026124","37051","Cumberland","Cumberland County","06","H1","G4020","246","22180",,"A","1690129718","15279291","+35.0501921","-078.8287187",-78.8275607670861,35.0486119419671
"56","017","01605074","56017","Hot Springs","Hot Springs County","06","H1","G4020",,,,"A","5191447312","5106758","+43.7202092","-108.4350765",-108.442097150802,43.7189289964935
"26","001","01622943","26001","Alcona","Alcona County","06","H1","G4020",,,,"A","1747349266","2890404970","+44.6825347","-082.8340784",-83.1290075152489,44.6836233780869
"06","061","00277295","06061","Placer","Placer County","06","H1","G4020","472","40900",,"A","3644306246","246466620","+39.0620323","-120.7227181",-120.717645936012,39.0634313878947
"05","129","00069180","05129","Searcy","Searcy County","06","H1","G4020",,,,"A","1724955843","6256683","+35.8963868","-092.6958884",-92.6995245165573,35.9109060183763
"48","305","01383938","48305","Lynn","Lynn County","06","H1","G4020","352","31180",,"A","2309924849","4169718","+33.1784124","-101.8184933",-101.816123836928,33.1768244406119
"36","077","00974137","36077","Otsego","Otsego County","06","H1","G4020",,"36580",,"A","2594487145","36314099","+42.6297762","-075.0288410",-75.0326059513149,42.6337635679182
"37","153","01008581","37153","Richmond","Richmond County","06","H1","G4020",,"40460",,"A","1226849546","15575097","+35.0046360","-079.7556946",-79.7477780226081,35.0060483544636
"37","093","01008563","37093","Hoke","Hoke County","06","H1","G4020","246","22180",,"A","1010416546","3941216","+35.0172328","-079.2419635",-79.2372907149807,35.017529007481
"31","131","00835887","31131","Otoe","Otoe County","06","H1","G4020",,,,"A","1594561663","8689332","+40.6379916","-096.1310274",-96.134775419424,40.6485010044118
"42","023","01213663","42023","Cameron","Cameron County","06","H1","G4020",,,,"A","1026233354","5660231","+41.4382909","-078.1983225",-78.2037773985019,41.4368044100916
"45","035","01247998","45035","Dorchester","Dorchester County","06","H1","G4020",,"16700",,"A","1472651489","6707342","+33.0821859","-080.4046966",-80.4066857520034,33.0793130599602
"27","161","00659525","27161","Waseca","Waseca County","06","H1","G4020",,,,"A","1096505110","24893715","+44.0184598","-093.5898443",-93.587283222924,44.0221236545065
"46","015","01265768","46015","Brule","Brule County","06","H1","G4020",,,,"A","2116643978","75721265","+43.7298732","-099.0929090",-99.08093539633,43.7180588836983
"47","177","01639796","47177","Warren","Warren County","06","H1","G4020",,"32660",,"A","1120619143","3524884","+35.6782498","-085.7773428",-85.7784980390483,35.6786827093032
"17","023","00424213","17023","Clark","Clark County","06","H1","G4020",,,,"A","1298554908","8771353","+39.3323343","-087.7916832",-87.7877174065864,39.3335754723126
"21","201","00516947","21201","Robertson","Robertson County","06","H1","G4020",,,,"A","258794974","484952","+38.5134727","-084.0642300",-84.0520241975481,38.5188144389235
"47","095","01639762","47095","Lake","Lake County","06","H1","G4020",,,,"A","429381243","72799687","+36.3339054","-089.4855365",-89.4934667960498,36.3353843636478
